city_lat,city_lon,city_class
0.8295619747899128,-2.132151810101589,Newcastle
0.701751513666368,-1.3051572146413597,Morrisville
0.709478086264947,-1.2906640005327987,Brooklyn
0.6665831292386823,-1.481161452400224,Frankfort
0.7548339575365236,-1.379583289934154,Youngstown
0.6550133416272119,-1.3522043099581187,Richmond
0.5979253671237295,-2.071080994245055,Santa Susana
0.530039040538158,-1.589797726361359,Oak Hills Place
0.7198575593265572,-1.4983040763133122,Warsaw
0.6349193659490012,-1.509182713540993,Gallatin
0.4565659150169527,-1.3986981359019957,Wilton Manors
0.5914711395498544,-2.046880258836902,March ARB
0.5182720307212122,-1.6696831915543915,Mission Bend
0.5640153650867316,-1.5745051514553847,Jackson
0.5800566862418114,-1.5276308437345727,Tuscaloosa
0.6978995720072165,-1.3137355079149118,Penn Wynne
0.44691075359492005,-1.402614654743471,West Perrine
0.7238648352891363,-1.4233090236843677,Shaker Heights
0.7189325348230002,-1.2775007273142576,Bridgeport
0.5892720246923415,-1.4734418611186528,Atlanta
0.6775106356854188,-1.3454062525216008,Alexandria
0.45808958745394374,-1.3999617542804397,Margate
0.7113944577836367,-1.2843720885793593,Westbury
0.5165860426637856,-1.6676970068656218,Fifth Street
0.5313358201723898,-1.7048201600555413,Wells Branch
0.5203350098970695,-1.6590698443730136,Highlands
0.6752102917312903,-2.117913414063819,Foothill Farms
0.6800029658572667,-1.3431146352137324,Hyattsville
0.5935044481284277,-1.4686806029192123,Duluth
0.7139077319065086,-1.2954078054397193,Totowa
0.5384375648987547,-1.4534892571098539,Valdosta
0.45063528621867593,-1.4013143844507352,Miami Springs
0.710406601427008,-1.2864437944014766,Elmont
0.7129687447689356,-1.2892083959366356,Bronx
0.7102896643671243,-1.2962438181514246,Union
0.7302021258031276,-1.5304198798792596,Chicago
0.70975210295751,-1.294882461334869,Elizabeth
0.587591272622671,-1.3932823792330573,Kingstree
0.6411205207813371,-1.327209449740308,Virginia Beach
0.5170276109645402,-1.6708560528117316,Pecan Grove
0.5898043501141998,-2.065029937728391,Lomita
0.7102495217943284,-1.290232904207556,New York
0.7847611182204705,-1.627830196091567,Minneapolis
0.7520676106721126,-1.4609086517600818,Beecher
0.6496272555555574,-1.3485862424187345,Prince George
0.5870641831885687,-1.4741748994044905,College Park
0.7125079778464092,-1.2910898608702854,Edgewater
0.522916351860769,-1.5735085684524959,Jefferson
0.7111378943835935,-1.2920340839956141,Hoboken
0.6970164354057075,-1.310869677283137,Camden
0.650021699966508,-1.3513857505389335,Ettrick
0.6123121161479187,-1.566998490342557,Germantown
0.7124817979076292,-1.2913324616363124,Cliffside Park
0.493999736813727,-1.4209929717669714,Kissimmee
0.7450531324083474,-1.2893515129352988,Westmere
0.5747404133402367,-1.3963105254852675,Hanahan
0.5220681218442998,-1.6646671152841597,Aldine
0.6581182823665098,-2.132092468907021,San Leandro
0.519863770999031,-1.6648433935386109,Houston
0.5154952118812892,-1.6662588555619784,Fresno
0.631311770385129,-1.514670028709263,Nashville
0.7161888772388652,-1.3132153997978173,Penn Estates
0.5000106507575954,-1.4197520426688033,Fern Park
0.6125390089506779,-1.3750785951347564,Eastover
0.5923961640534113,-1.4715254895999632,Dunwoody
0.5923315868710876,-2.0489275300494914,Riverside
0.727629510485688,-1.5376717229212962,Bolingbrook
0.592856930975938,-2.063759338032939,Florence-Graham
0.6212377299426176,-1.3504659620231325,Greenville
0.6564706915526272,-1.352745362026237,Dumbarton
0.5833937557716247,-1.517146650917843,Lipscomb
0.7105846250107114,-1.2863146400368288,South Floral Park
0.7118046101578555,-1.2909537251886298,Manhattan
0.5861129787462318,-1.4849924501083513,Carrollton
0.8220134257750373,-2.136689666156774,Spanaway
0.7398258712986243,-1.2434127016935563,Waltham
0.7169777660607666,-1.4228255674815653,Akron
0.5658985753496334,-1.5733811594171,Ridgeland
0.5674065398233565,-1.481384854544479,Columbus
0.5250770694747381,-1.675327586355341,Prairie View
0.5163102806419705,-1.6712627145274461,Richmond
0.7378536492438708,-1.461381635987372,Ann Arbor
0.7416270510866825,-1.4525904125450766,Lathrup Village
0.5930070292916093,-1.4143258140243529,Olympia
0.7350541411236718,-1.2660531127504266,Springfield
0.7872674110263342,-1.6267795078818668,Mounds View
0.5863293995734791,-1.4759010300347128,Union City
0.7248020770974573,-1.2919520535207705,Balmville
0.5331404906189519,-1.590387647648533,Brownfields
0.6790151095006379,-1.344188012703709,Washington
0.7310695544413688,-1.53222280499657,Oak Park
0.7849635764137016,-2.164333936179112,Lincoln City
0.5619174793258345,-1.9367779083040915,South Tucson
0.7240009709707917,-1.4276932907653774,Lakewood
0.6253933588916162,-1.3725775383166485,Raleigh
0.7066314542549442,-1.2993103616471786,New Brunswick
0.7137174910180412,-1.288154217068431,Pelham Manor
0.6834883883734995,-1.3180761417646216,Dover
0.7838919442529771,-1.1696899940893157,Eastport
0.6718418062749412,-2.1428000638680063,Fulton
0.6101845597897375,-1.5681242277100933,Olive Branch
0.7395989784958651,-1.2412519840795873,Cambridge
0.5933334058617323,-2.065567499138005,View Park-Windsor Hills
0.6983341589909632,-1.3129815256780504,Bala Cynwyd
0.5905251710952735,-2.0654505620781216,Torrance
0.5704975179286386,-1.6933324029189143,Grand Prairie
0.7321045346878015,-1.4835106655734083,Coldwater
0.5315417690241251,-1.4704870186950265,Tallahassee
0.7084169260797344,-1.2868225308491592,Atlantic Beach
0.724864908950529,-1.4238291318014622,East Cleveland
0.5195199411363881,-1.6622690328919194,Jacinto City
0.5184326010123956,-1.666127955868079,Bellaire
0.6276116723709009,-1.3920746113906772,Pleasant Garden
0.7473185697774359,-1.3758866825784297,Lackawanna
0.5252585837169454,-1.668873358781466,Tomball
0.7411523215301401,-1.4518067597109312,Oak Park
0.739939317700004,-1.4495989182071582,Hamtramck
0.7123090103116818,-1.2840317493752202,Brookville
0.7002976543994568,-1.447244469046218,Westerville
0.7112181795291853,-1.2880111000697674,Queens
0.7417404974880621,-1.4518573742592389,Berkley
0.453389415778323,-1.4021119999188967,Miramar
0.6277809693083444,-1.4651969257322317,Knoxville
0.6978908453609566,-1.4483702064137545,Columbus
0.627931067624016,-1.4679807258891626,Karns
0.6837414611150385,-1.348516429248655,Germantown
0.6256830835474472,-1.508175658562592,Murfreesboro
0.5733511312556492,-1.6893687601876355,University Park
0.7345968648596494,-1.3258987074720603,Binghamton University
0.7149566747869571,-1.4900940475119306,Roanoke
0.5508782718069702,-1.9253652003253006,Sierra Vista
0.5859454271380403,-1.956325595926428,Phoenix
0.6937823403017619,-1.8336900360350465,Edgewater
0.6527583762336353,-1.3821419426175776,Lynchburg
0.741166284164156,-1.4476825466884686,Eastpointe
0.6336644742168173,-1.5114498962393335,Hendersonville
0.5899265231618394,-2.0593750709519294,Stanton
0.5464870234089525,-1.5598705656774121,West Hattiesburg
0.7000637802796895,-1.5393332763691947,Urbana
0.7095775700323106,-1.2866305446314399,South Valley Stream
0.742091308667713,-1.4539116267888363,Franklin
0.4551626702983492,-1.4012724965486876,Davie
0.696253726522586,-1.3147338362470524,Folsom
0.7852812263375646,-1.280431135128356,Rouses Point
0.5938220980522907,-2.0678835510554014,Santa Monica
0.7234511922564135,-1.540760955697326,Minooka
0.7331325336172261,-1.5312297126521852,Lincolnwood
0.637436130730377,-1.4406890123757272,Kingsport
0.6994756043217675,-1.447588298908861,Minerva Park
0.6807080788750725,-1.3432909134681836,Adelphi
0.5701100548346958,-2.0448347329535643,Coronado
0.595588371255309,-2.0519260057044173,Rancho Cucamonga
0.5405529039521718,-1.4520336525136905,Moody AFB
0.6982660911501354,-1.3113339348641675,Philadelphia
0.71465298749711,-1.2892275945584073,Yonkers
0.6467334996557509,-1.3327857767004299,Hampton
0.5861077427584758,-1.4719949831687495,Morrow
0.6750060882088069,-1.5759293401250118,Wellston
0.6948365191699665,-1.4670766453366295,Wright-Patterson AFB
0.6936462046201064,-1.296439295027648,Ocean Acres
0.5748119718395684,-1.6942644087394796,Grapevine
0.6826611023080541,-1.346538971206145,Derwood
0.5338124423809697,-1.6806805111712075,College Station
0.7111012424693016,-1.2942157455606071,Harrison
0.7106701461440591,-1.2927409423426721,Jersey City
0.6992696554700321,-1.3076373275084436,Beverly
0.5879001959002739,-1.468471163408973,Stonecrest
0.7452590812600828,-1.2420216742797168,Lawrence
0.4500156943342179,-1.3999303383539037,Miami
0.5875581113668831,-1.4660172304806691,Conyers
0.7159689657531139,-1.4070076484707408,Poland
0.723899741874176,-1.4255936596752283,Cleveland
0.7190843784679237,-1.2898000625530615,Croton-on-Hudson
0.5896455251522682,-1.4717872889877623,Druid Hills
0.5600185610996645,-1.4168111628791928,Garden City
0.49694236193258945,-1.4209929717669714,Oak Ridge
0.6772785068949035,-1.3425055153047862,Camp Springs
0.7381608271922218,-1.4541175756405718,Inkster
0.7146739314481341,-1.2950151063580204,William Paterson University of New Jersey
0.5907433372517726,-2.061621309699246,Lakewood
0.6675413149980273,-2.1294605123950134,Suisun City
0.5902441730857023,-1.4717558730612263,North Druid Hills
0.6873665099714308,-1.3360827036574472,Parkville
0.7203654501388875,-1.2735178859612066,West Haven
0.5951014243940026,-2.0500619940632876,Fontana
0.6958173942095874,-1.500815605106932,Lawrence
0.5758312441227331,-1.3963593947043234,Goose Creek
0.7295144660778419,-1.5351357595181485,Clarendon Hills
0.5950961884062466,-2.0700529953156304,Topanga
0.7161487346660693,-1.3002196781874678,Oak Ridge
0.5920767688002964,-2.0647821009746075,West Athens
0.7258876718921976,-1.4227714622747536,Euclid
0.7372968892124846,-1.4594582831516745,Ypsilanti
0.6966883135063324,-1.4456876353534391,Brice
0.6430979788238467,-1.3326286970677503,Portsmouth
0.6610172742540724,-2.1374384124058796,Belvedere
0.7458490025472568,-1.2424806958729913,Methuen Town
0.7386023954929763,-1.2406707894386733,Boston
0.7129827074029517,-1.2910427369804816,Fort Lee
0.5898340207114837,-1.47067376892499,Scottdale
0.592790608464362,-1.413756836688203,Arthurtown
0.5888636176473749,-1.4689458929655155,Redan
0.45059339831662804,-1.3986998812312477,Miami Beach
0.7413547797233714,-1.4531698618567386,Southfield
0.5965866995874497,-2.0637959899472307,Glendale
0.6780918303263329,-1.3416485586420572,Forestville
0.5962690496635867,-2.071028634367495,Hidden Hills
0.7931072827035072,-2.1408103885207326,Dunthorpe
0.6807133148628285,-1.3451950676821096,North Chevy Chase
0.6327883189323161,-1.643283341288725,Lowell
0.7089859034158845,-1.2871907953213302,Inwood
0.6738454442562307,-1.3424967886585262,Waldorf
0.7100243743208211,-1.2849689911835411,South Hempstead
0.4531433243537918,-1.3994573541266133,Ives Estates
0.6645934538914088,-1.4956319772285087,Hunters Hollow
0.4562500104223417,-1.3988185636203834,Fort Lauderdale
0.6286675965683576,-1.5107325659167636,La Vergne
0.6578058684304029,-1.6989785430491162,Wichita
0.746093348642536,-1.4745169839378813,East Lansing
0.5915444433784381,-2.063457396072344,Compton
0.7114852149047404,-1.2952385085022757,East Orange
0.4973629862823201,-1.41950420591502,Conway
0.8240519703413667,-2.138832930478223,University Place
0.7231771755638505,-1.4251695446669936,Cuyahoga Heights
0.7136948017377652,-1.2910828795532774,Englewood
0.7016031606799485,-1.4904239147405576,Muncie
0.7512019273631234,-1.3289582696508062,Syracuse
0.5907206479714967,-1.4683699343123573,Mountain Park
0.6564741822111312,-1.3522252539091426,Lakeside
0.7583717399303161,-1.3359430773172876,SUNY Oswego
0.7498335892295598,-1.3743036689468708,Williamsville
0.6805998684614488,-1.3503490249632488,Dranesville
0.5324318869426422,-1.5787602641717466,Hammond
0.7097329043357382,-1.2863827078776566,Valley Stream
0.7289559607172037,-1.2685646415440466,Hartford
0.643930500877048,-1.3309706342783558,Norfolk
0.5225044541572984,-1.5749048318540912,Waggaman
0.7447930783498001,-1.4528958451641756,Auburn Hills
0.4900378394116999,-1.4387359889427456,University
0.6816872085854413,-1.3430099154586128,Calverton
0.6145007590299195,-1.4107548703747725,Charlotte
0.4609554180857184,-1.7293053841317696,Guadalupe Guerra
0.598061502805385,-1.3590163300286526,Kings Grant
0.5935131747746877,-2.0664139838252225,Culver City
0.7140770288439521,-1.2885608787841456,Mount Vernon
0.5966914193425694,-2.0651346574835103,Burbank
0.7844871015279072,-1.6249696014475485,St. Paul
0.6880786043062445,-1.3372311303052593,Lutherville
0.6822561859215914,-1.4756723919027017,Ludlow
0.6532767390214775,-1.4658304802507056,McKee
0.6279555022335438,-1.3771031770670699,Durham
0.5144340516960767,-1.7189154390946473,Olmos Park
0.594953071407583,-2.0659793968414757,West Hollywood
0.678419952225708,-1.3425334405728182,Coral Hills
0.7365289443416071,-1.4938377787574586,Portage
0.7058059135187509,-1.395849758562741,Pittsburgh
0.7106561835100431,-1.2844698270174708,Uniondale
0.7251877948621479,-1.42134203761737,Mayfield
0.6796713532993879,-1.3432839321511758,Mount Rainier
0.697770417642569,-1.4493353734901073,Grandview Heights
0.6401483723879762,-1.3317263618444695,Chesapeake
0.7239904989952798,-1.5313291964195488,Richton Park
0.5661411761156606,-1.4272447411476148,Statesboro
0.6224856403577935,-1.4048242415764958,Salisbury
0.7113996937713927,-1.2839497189003763,New Cassel
0.595883331898896,-2.047171728821985,San Bernardino
0.5147918441927355,-1.7211442245494442,Leon Valley
0.6882583732191999,-1.3378227969216856,Mays Chapel
0.5955185580852292,-2.055479496061478,La Verne
0.6754720911190895,-1.5763464738162385,Bel-Nor
0.7414437915152231,-1.451564158944904,Huntington Woods
0.6823347257379312,-1.3414984603263855,Laurel
0.5709827194606929,-1.695653690824067,Pantego
0.6721559655403002,-1.5770341335415243,Concord
0.6024422792278907,-1.9591251040466269,Dewey-Humboldt
0.5858319807366607,-1.7782793229427305,Lubbock
0.6538526976746357,-1.3539286952590892,Rockwood
0.6061947371196785,-1.4388616526488893,Golden Grove
0.593125711680745,-2.053648645676136,Chino
0.7068688190332154,-1.2990188916620955,Highland Park
0.7481039679408334,-1.4985868196521352,Hudsonville
0.5636313926512928,-1.9375074559314251,Flowing Wells
0.4956979421759175,-1.4215043532378058,Williamsburg
0.70976955625003,-1.2935647377496131,Bayonne
0.6179512749611124,-1.4114756913558462,Huntersville
0.7212258974601208,-1.459912068757193,Portage
0.6532784843507295,-1.352176384690087,Meadowbrook
0.7233901057325938,-1.2983748651681097,Mechanicstown
0.591577604634226,-2.06290238137021,East Rancho Dominguez
0.594350932815645,-2.047716271548607,Colton
0.7143702441582871,-1.2877667539744884,New Rochelle
0.6254701533787038,-1.3759268251512258,Morrisville
0.5433628840478827,-1.6278214694453075,Leesville
0.7947723268099098,-2.1406463275710452,Portland
0.5313759627451856,-1.591911320085524,Port Allen
0.7396600650196848,-1.4473788593986217,Grosse Pointe Park
0.7112146888706813,-1.280431135128356,Wyandanch
0.7176183018962485,-1.4517735984551432,Tiffin
0.5511330898777614,-1.4691518418172507,Albany
0.7318409899707502,-1.5489465498891795,DeKalb
0.5920313902397446,-2.0636005130710076,Willowbrook
0.5352052151240612,-1.6821605503768988,Bryan
0.6163193921104976,-1.407581861794647,Harrisburg
0.449371667840232,-1.4024121965502396,Westchester
0.7197999634612414,-1.2772947784625222,Trumbull Center
0.4890011138360153,-1.4400048433089456,Egypt Lake-Leto
0.6006986953051483,-2.0681523317602086,Santa Clarita
0.7179883116976713,-1.287752791340472,Pleasantville
0.683603580104131,-1.3470870045912715,Flower Hill
0.7118447527306513,-1.2917077074254912,West New York
0.45597250307127457,-1.3994119755660615,Boulevard Gardens
0.4953069884234708,-1.4229006166394012,Lake Buena Vista
0.6963881168749895,-1.5036046412516189,Williams Creek
0.67710920995746,-1.7061431196285528,Bavaria
0.5869071035558892,-1.476199481336804,South Fulton
0.6936846018636502,-1.3088817472651155,Sicklerville
0.6745767372128163,-2.1162047367261168,Fair Oaks
0.7297797561241449,-1.268774081054286,Blue Hills
0.5312782243070739,-1.550990330443265,St. Martin
0.6828338899040015,-1.6535999824972636,Kansas City
0.5216841494088611,-1.6680478180452727,Jersey Village
0.7303242988507672,-1.5316887342454595,Cicero
0.6512992809789679,-1.3831402709497183,Timberlake
0.695012797424418,-1.309089441446103,Laurel Springs
0.5230873941274645,-1.6406356768134496,Nederland
0.6504719949135227,-1.3388001813028023,Williamsburg
0.5954627075491654,-2.0488280462821273,Rialto
0.7407002812538735,-1.4473893313741335,Harper Woods
0.6341304771270997,-1.5132458400396356,Goodlettsville
0.5128929259665657,-1.721207056402516,Lackland AFB
0.7075983666605491,-1.2978757010020392,Metuchen
0.7141922205745836,-1.344715102137811,Mifflinburg
0.47611883862704507,-1.4030422604102097,Port St. Lucie
0.7227303712753399,-1.423534171157875,Maple Heights
0.6817640030725289,-1.3526039903568257,Belmont
0.7016398125942405,-1.339171936433477,Middletown
0.7107731205699267,-1.286599128704904,Bellerose
0.6060760547305429,-1.6119459545691668,Little Rock
0.4509843520690748,-1.4003963412641862,Gladeview
0.677463511795615,-1.346596567071461,Lincolnia
0.5691291797950749,-1.4920872135177083,Auburn
0.5947279239340758,-1.4129260599642535,Dentsville
0.6229708418898481,-1.372144696662154,Garner
0.6314304527742646,-2.0079786151392,Sunrise Manor
0.5866505401558461,-1.6373596938074564,Fulton
0.5898811446012875,-2.0624032172041393,Long Beach
0.6149440726599261,-1.567646007495047,Bartlett
0.5922530470547478,-2.060033060079931,South Whittier
0.7204370086382194,-1.2708580041811672,Branford Center
0.7107347233263829,-1.2867474816913234,Bellerose Terrace
0.6992347488849923,-1.31062707651711,Cheltenham Village
0.6782297113372404,-1.827351000191803,Cimarron Hills
0.7441891944286102,-1.2447984931196399,Lowell
0.5859750977353242,-1.4642282679973748,Porterdale
0.5940978600741058,-2.052618901417459,Ontario
0.5888461643548548,-1.4783881242188048,Douglasville
0.5710612592770327,-1.6862516021435734,Balch Springs
0.6791163385972536,-1.3409434456242513,Lake Arbor
0.6512102691871162,-2.1281794407240495,Fruitdale
0.5267613122029126,-1.4944695879466807,Cedar Grove
0.6470947828109137,-1.9822611886110637,St. George
0.6934367651098671,-1.4671656571284812,Beavercreek
0.6974126251459101,-1.4450331368839413,Reynoldsburg
0.5940716801353259,-1.4120341967164844,Columbia
0.6832754582047561,-1.3400149304621902,Jessup
0.6974981462792579,-1.3134091313447886,Millbourne
0.5185181221457433,-1.6656828969088202,Southside Place
0.7155605587081473,-1.2883828552004422,Greenville
0.5175128124965946,-1.6683148534208279,Meadows Place
0.6870348974135518,-1.335482310394761,Overlea
0.6753394460959379,-1.575917122820248,Velda City
0.7953011615732641,-1.1768632973150124,Vanceboro
0.5186368045348789,-1.6656043570924806,West University Place
0.710069752881373,-1.2864420490722246,North Valley Stream
0.6399878020967927,-1.5257947573614747,Oak Grove
0.589724064968608,-2.0608900167426603,Rossmoor
0.48804816406442636,-1.4077703573538622,Palm Bay
0.6798912647851392,-1.3393761399559605,Bowie
0.6879756298803769,-1.3325868091657027,Joppatowne
0.5914990648178863,-1.465336552072391,Grayson
0.6886196563743627,-1.3406572116269242,Reisterstown
0.7118081008163594,-1.2774850193509897,Central Islip
0.7001248668035093,-1.5406667079177185,Champaign
0.6310691696191018,-1.3991274868979864,Walkertown
0.5845596357119569,-2.044330332799738,Temecula
0.5909964099933119,-2.0518945897778815,Corona
0.6583748457665529,-1.5572473358116645,Carbondale
0.6568982972193659,-2.1118972641321947,Modesto
0.6860034078256233,-1.3371735344399436,Baltimore
0.6805963778029448,-1.34195748191966,Greenbelt
0.5923944187241593,-2.064755921035828,Westmont
0.7221753565732058,-1.4599591926469968,Bowling Green
0.546937318355967,-1.5599246708842238,Arnold Line
0.7177038230295962,-1.2927374516841679,Kaser
0.6896685992548113,-1.3294748871093967,Aberdeen
0.7509034760610324,-1.4607027029083461,Flint
0.6114708674484574,-1.3751222283660565,Vander
0.5895320787508888,-1.3790038406224916,Red Hill
0.7108132631427225,-1.285342491643468,Garden City
0.5897572262243959,-1.4696736952635971,Pine Lake
0.7404664071341063,-1.5534896419321207,Roscoe
0.5768348084426298,-1.6885816166949859,Plano
0.7415362939655787,-1.2418768119518013,Woburn
0.6582701260114333,-2.127491780998764,Dublin
0.5163748578242943,-1.7201319335832872,Shavano Park
0.48887719545912367,-1.4412283191145936,Town 'n' Country
0.5928359870249139,-1.4701257355398636,Peachtree Corners
0.6820292931188321,-1.3421983373564352,Konterra
0.6539242561739674,-2.131661372581778,East Palo Alto
0.6668100220414416,-1.3211618838821477,Princess Anne
0.5819992376992811,-1.479625562658469,East Newnan
0.6982137312725756,-1.3325972811412143,Millersville
0.6737267618670951,-2.118559185887057,Arden-Arcade
0.708872457014505,-1.2987989801763442,Plainfield
0.446605320975821,-1.4030038631666657,South Miami Heights
0.7391451928903465,-1.3412576048896103,Montour Falls
0.6163385907322696,-1.4138441031508024,Mount Holly
0.7083139516538667,-1.2941546590367874,Staten Island
0.7095967686540826,-1.2833144190526504,Bellmore
0.6830276214509728,-1.3476228206716336,Gaithersburg
0.7099056919316855,-1.2858207118585145,Malverne
0.6942413618950364,-1.503527846764531,Indianapolis
0.699625702637439,-1.3123846230738683,Wyndmoor
0.49798606882528207,-1.426297027363782,Clermont
0.6925047592893021,-1.322219553408856,Newark
0.5234120253683354,-1.6409864879931007,Central Gardens
0.7168782822934029,-1.2827681309967764,Noroton Heights
0.5487734047290651,-1.753190214945312,San Angelo
0.4535063528382066,-1.3996196697470489,West Park
0.4540090076627809,-1.4021661051257084,Pembroke Pines
0.5928499496589298,-2.0598166392526838,Whittier
0.6797568744327356,-1.6114066478303009,Columbia
0.8311449884214717,-2.1349635355265515,Seattle
0.5984768911673596,-1.4630990399713346,Gainesville
0.5912180668083151,-1.471860592816346,Brookhaven
0.7414071396009313,-1.2670165344975277,South Deerfield
0.6637993290817513,-2.128629735671064,Bay Point
0.6785595785658673,-1.3456680519094,Arlington
0.7487776650321033,-1.3761694259172528,Buffalo
0.582966150104886,-1.949843443084521,Mesa
0.7178870826010557,-1.2865485141565962,Armonk
0.45728848132727834,-1.39797556959167,Sea Ranch Lakes
0.6129509066541486,-1.4086569846138752,Matthews
0.6975365435228017,-1.3083738564527851,Moorestown-Lenola
0.5313009135873498,-1.521771773435628,Pensacola
0.5905740403143294,-2.063954814909162,Carson
0.5578718061197115,-1.4159140636436678,Vernonburg
0.7272472833795012,-1.459850982233373,Ottawa Hills
0.6785840131753954,-1.3409172656854715,Largo
0.724220882456543,-1.4230542056135764,University Heights
0.7075407707952333,-1.395800889343685,Glenshaw
0.6997897635871264,-1.4489880529689603,Worthington
0.591923179826121,-2.065555281833241,Hawthorne
0.6301144745182607,-1.4008187109431687,Winston-Salem
0.7246938666838335,-1.5324531884578332,Frankfort Square
0.731285975268616,-1.3169032805072816,Starrucca
0.5919633223989168,-2.066501250287822,El Segundo
0.7127156720273964,-1.2998967922758486,Morris Plains
0.5923298415418357,-2.0657472680509605,Lennox
0.6801879707579781,-1.342934866300777,University Park
0.7313557884386959,-1.2408296144006048,Taunton
0.677454785149355,-1.339564635515176,Upper Marlboro
0.7107766112284307,-1.2945543394354941,Newark
0.7239625737272478,-1.4217801152596208,Pepper Pike
0.7245088617831221,-1.423553369779647,Cleveland Heights
0.4966508919475064,-1.4215095892255616,Tangelo Park
0.5895914199454565,-1.477398522532924,Lithia Springs
0.6127624110949331,-1.5702081508369745,Memphis
0.7210182032791335,-1.2727743756998569,New Haven
0.6808948291050358,-1.6453585377693463,Blue Springs
0.5209685644155434,-1.5721070690631445,Woodmere
0.751612079737342,-1.5353225097481118,Milwaukee
0.49856551813694416,-1.4178269445038536,Union Park
0.6973183773663025,-1.3397321871233672,West York
0.5882684603724447,-1.471583085465279,Gresham Park
0.5701135454931998,-2.0425518422919557,Bonita
0.5851286130481069,-1.4700821023085637,Stockbridge
0.6746395690658882,-1.3550212713708376,Catlett
0.7175938672867206,-1.292391876492273,Spring Valley
0.6740880450222579,-2.144400530792085,Healdsburg
0.5884011053955963,-1.4679266206823507,Lithonia
0.6997182050877946,-1.4471816371931463,Huber Ridge
0.7074849202591694,-1.2969995457175383,Fords
0.7101186221004289,-1.3973769216582361,Seven Fields
0.6769852915805685,-1.3434270491498395,Oxon Hill
0.7253274212023074,-1.2747204178158307,Waterbury
0.8203030031080828,-2.1039507800478643,Ellensburg
0.5953370438430219,-2.062233920266696,South Pasadena
0.7112391234802092,-1.2943763158517907,East Newark
0.7142515617691515,-1.291512230549268,Bergenfield
0.6812822921989785,-1.6702015543422335,Topeka
0.6800151831620307,-1.3411476491467347,Lanham
0.516456888299138,-1.6636111910867029,Brookside Village
0.7059071426153666,-1.2981462270360984,South River
0.6839666085885459,-1.473075341975734,Silverton
0.5933630764590162,-2.0660160487557677,Ladera Heights
0.5954679435369215,-2.053561379213536,Upland
0.6299870654828652,-1.3932457273187655,Greensboro
0.5947837744701396,-2.066506486275578,Beverly Hills
0.5717733536118463,-1.685752437977503,Mesquite
0.7856372735049715,-1.6231474777084665,North St. Paul
0.7311655475502284,-1.4559292274041418,South Monroe
0.5234608945873913,-1.6626966385586581,Humble
0.6958435741483672,-1.3874442528851363,Ohiopyle
0.4535307874477345,-1.3987470051210518,Hallandale Beach
0.7374120809431162,-1.2395101454860968,Quincy
0.7226378688249842,-1.4225358428257344,Bedford Heights
0.7135307407880778,-1.290613385984491,Englewood Cliffs
0.5846277035527845,-1.418594889374731,Springfield
0.6558423730219092,-1.3506492215945918,East Highland Park
0.7395274199965334,-1.456791420054627,Plymouth
0.6140818800094409,-1.3787437865639447,Spring Lake
0.48969400954905706,-1.4287439789750782,Fussels Corner
0.7132200721812227,-1.2987605829328004,Parsippany
0.5886419608323715,-1.4708291032284173,Candler-McAfee
0.679006382854378,-1.3415961987644973,Summerfield
0.5965186317466219,-1.3925947195077715,Florence
0.5887798418432791,-2.028676474738601,Indio
0.5958431893261001,-2.061280970495107,San Pasqual
0.7115271028067882,-1.2921073878241982,Union City
0.8343651208914011,-2.1334922229671203,Bothell West
0.5152718097370339,-1.7194931430770575,Castle Hills
0.6103590927149369,-1.3781067413869665,Hope Mills
0.5676229606506038,-1.6347940598070245,Bossier City
0.7129320928546438,-1.427230778513599,Orrville
0.590982447359296,-1.4742551845500822,Vinings
0.5325139174174859,-1.427834662434789,Nassau Village-Ratliff
0.5236842967316466,-1.6025648098396974,New Iberia
0.6736901099528033,-1.6626634773028701,Ottawa
0.6147259065034268,-1.4144165711454566,Belmont
0.4586777634118658,-1.3994782980776372,Coconut Creek
0.5886890847221754,-1.4820934582207888,Villa Rica
0.5306132538620641,-1.5882845258998797,Shenandoah
0.55892947564642,-1.7822377296862537,Midland
0.7136494231772134,-1.2923499885902252,Hackensack
0.6443860318118184,-2.125301392787511,Watsonville
0.7443707086708176,-1.4536463367425332,Pontiac
0.6055960891862444,-1.512174207878911,Huntsville
0.6818320709133567,-1.338559325866027,Odenton
0.6300533879944411,-1.515926665770699,Belle Meade
0.5876453778294828,-1.4742813644888622,East Point
0.5850587998780272,-1.4303793524841968,North Augusta
0.7176462271642804,-1.292733961025664,Monsey
0.7118761686571872,-1.283543057184662,Jericho
0.6590782134551066,-2.1281934033580656,San Ramon
0.6098442205855986,-1.4141373184651376,Rock Hill
0.7344712011535057,-1.2396061385949564,Brockton
0.7145290691202186,-1.2885155002235937,Bronxville
0.7404280098905625,-1.2410809418128919,Medford
0.6781284822406248,-1.3403744682881011,Brown Station
0.7281740532123102,-1.530676443279303,Evergreen Park
0.6721542202110482,-1.3383132344414959,Benedict
0.4574734862279897,-1.4001188339131192,North Lauderdale
0.716529216443004,-1.2883025700548505,Elmsford
0.5920924767635644,-2.045604423153694,Moreno Valley
0.5350673341131535,-1.4215898743711533,Fernandina Beach
0.7397298781897647,-1.4504104963093358,Detroit
0.6823766136399789,-1.5255469206076915,Sullivan
0.6814655517704379,-1.3437028111716545,White Oak
0.7231370329910545,-1.4229512311877088,North Randall
0.7374557141744161,-1.3875891152130517,Mayville
0.5875947632811749,-2.0579788075503336,Costa Mesa
0.5917940254614733,-1.4708081592773936,Doraville
0.7020360023344432,-1.3048797072902925,Trenton
0.5827322759851188,-1.953580193013041,Tempe
0.7450182258233075,-1.5367554250639992,Union Grove
0.590357619487082,-2.0484632724684606,Lake Mathews
0.6803467957199096,-1.3439523932546895,Takoma Park
0.7239014872034282,-1.297945514172119,Scotchtown
0.6942570698583044,-1.3195491996533049,Greenville
0.7346754046759891,-1.3405821624690886,Elmira
0.7123700968355016,-1.2689660672720053,Remsenburg-Speonk
0.5899736470516431,-2.0624224158259112,Signal Hill
0.7106526928515391,-1.2964968908929637,Vauxhall
0.5854427723134659,-1.9540619038865914,Paradise Valley
0.6601271563355553,-2.133317690041921,Piedmont
0.6986064303542743,-1.4498519909486975,Upper Arlington
0.5935969505787834,-2.047442254856044,Highgrove
0.6087830604003861,-1.6079788211793837,Jacksonville
0.7516679302734058,-1.2876602888901165,Saratoga Springs
0.5877780228526344,-2.0555405825852975,Irvine
0.5838126347921033,-1.6420877907511089,Texarkana
0.4720766560794262,-1.7354175271722538,San Ygnacio
0.7181855339031467,-1.4200173327151064,Kent
0.48105637508093707,-1.7363826942486065,Laredo
0.6925606098253659,-1.8306409458318125,Four Square Mile
0.7095234648254989,-1.296079757201737,Roselle
0.4845348162801618,-1.4381565396310836,Apollo Beach
0.5905024818149975,-2.0470129038600535,Mead Valley
0.610992647233411,-1.430632425225736,Valley Falls
0.48710045028059346,-1.4446299658267303,Largo
0.5707191747436419,-1.6951510359994926,Arlington
0.7182710550364944,-1.2787940162899851,Mill Plain
0.70972592301873,-1.2852307905713405,Rockville Centre
0.5933595858005122,-2.0590120424675145,Hacienda Heights
0.7455034273553619,-1.4758521608156572,Lansing
0.7436638503237599,-1.454630702440658,Keego Harbor
0.6276500696144448,-1.4520720497572341,Newport
0.6493375308997265,-1.3507329973986877,Petersburg
0.5649299176147765,-1.6869357712103554,Garrett
0.5797547442812164,-1.6954442513138277,Denton
0.5925532436860909,-2.054695843227332,Chino Hills
0.7028248911563446,-1.3050943827882877,The College of New Jersey
0.5002375435603548,-1.4206159806485406,Altamonte Springs
0.5358317883255271,-1.6677790373404655,Huntsville
0.5305486766797403,-1.5894888030837557,Inniswold
0.6981927873215517,-1.313362007454985,Merion Station
0.5904518672666896,-2.060759117048761,Hawaiian Gardens
0.4974677060374398,-1.4231013295033805,Windermere
0.6997286770633067,-1.3115503556914148,Wyncote
0.7236449238033849,-1.2832847484553667,Ball Pond
0.6763133398185507,-1.342268150526515,Clinton
0.6754127499245217,-1.3476804165369494,Lorton
0.5981016453781809,-1.4061786170760435,East Camden
0.6877347744436015,-1.3498463701386745,Spring Ridge
0.6945310865508675,-1.5053133185893213,Speedway
0.7104484893290558,-1.952998998372127,South Salt Lake
0.45737400246062604,-1.4006947925662772,Tamarac
0.6895115196221319,-1.4790722932855866,Oxford
0.5932932632889365,-1.4153503222952735,West Columbia
0.686689322221657,-1.339833416219983,Milford Mill
0.7296610737350093,-1.2454058676993338,East Providence
0.6742363980086774,-1.5766117638625419,Richmond Heights
0.828595062384308,-2.1340629456325226,Tukwila
0.730710016615458,-1.5369875538545144,Glen Ellyn
0.5923280962125835,-2.0617766440026735,Downey
0.7588848667304025,-1.4647204508464373,Zilwaukee
0.5957908294485403,-1.4656350033744823,Rest Haven
0.6778405029140457,-1.3389188636919378,Marlboro Meadows
0.7171348456934461,-1.486036157001044,Fort Wayne
0.7098987106146776,-1.281698244165304,East Massapequa
0.5178479157129775,-1.6695749811407676,Four Corners
0.5473771413274696,-1.9361565710903816,Nogales
0.7053102400111845,-1.3960120741831765,Mount Oliver
0.5313131308921138,-1.5905377459642045,Baton Rouge
0.7050100433798415,-1.3969213907234654,Dormont
0.6799191900531709,-1.3400288930962065,Fairwood
0.7072318475176302,-1.2996664088145855,Rutgers University-Busch Campus
0.6223669579686579,-1.3692073075310476,Clayton
0.600208257785338,-2.0697562893427914,Stevenson Ranch
0.654960981749652,-2.129027670740519,Fremont
0.5913297678804428,-2.0569630259256733,Placentia
0.7228699976154994,-1.2723310620698502,Quinnipiac University
0.6772209110295878,-1.3401597927901059,Queensland
0.4988465161465153,-1.4219057789657643,Pine Hills
0.7202921463103038,-1.2876253823050765,Yorktown Heights
0.599885371873719,-1.4821545447446085,Adairsville
0.6978821187146966,-1.4496949113160182,Marble Cliff
0.7446691599729087,-1.2880302986915393,Albany
0.6621011237195609,-2.124397312234978,Brentwood
0.72512845366758,-1.5272329086651182,Munster
0.6628533606271705,-2.125741215759014,Antioch
0.5850535638902712,-1.4722689998613125,Jonesboro
0.6772819975534076,-1.3417113904951288,Andrews AFB
0.6831445585108565,-1.4749079376903282,Cincinnati
0.6995349455163352,-1.449059611468292,Riverlea
0.7229136308467993,-1.424254992138949,Garfield Heights
0.6020967040359958,-2.04809500799629,Mountain View Acres
0.6969536035526356,-1.3134073860155369,Yeadon
0.6875619868476541,-1.3372538195855352,Towson
0.6860086438133792,-1.3395210022838762,Woodlawn
0.6404538050070753,-1.33761684806995,Suffolk
0.5901534159645986,-1.4759464085952647,Mableton
0.7116614931591918,-1.2867980962396313,University Gardens
0.6804986393648331,-1.3435684208192509,Langley Park
0.5250805601332421,-1.6431419696193135,Beaumont
0.6813782853078383,-1.4744820773528415,Wilder
0.6765873565111138,-1.576212083463835,Calverton Park
0.688247901243688,-1.3511309324681424,Frederick
0.4559829750467866,-1.400830928247933,Plantation
0.6725207393539671,-2.119803605643729,Fruitridge Pocket
0.5883400188717766,-1.3767925084602148,Myrtle Beach
0.7252506267152198,-1.4242846627362327,Bratenahl
0.5882789323479567,-1.4708989163984973,Panthersville
0.6282906054499267,-1.3951254469231633,Jamestown
0.7059053972861146,-1.296720293037219,Madison Park
0.6498087697977648,-1.3520699196057153,Matoaca
0.6969117156505878,-1.3141596229231465,Clifton Heights
0.6952082743006414,-1.504477305877616,Wynnedale
0.6574009520439401,-2.1272160189769487,Pleasanton
0.5758172814887172,-2.045279791912823,Fairbanks Ranch
0.5901254906965667,-1.4702705978677792,Clarkston
0.7258248400391258,-1.6318008201398544,Pleasant Hill
0.5701187814809557,-2.0437508834880758,National City
0.7072039222495983,-1.2992283311723347,Rutgers University-Livingston Campus
0.742426411884096,-1.4569764249553383,Walled Lake
0.6794584231306445,-1.342920903666761,Colmar Manor
0.582355284866688,-1.9541282263981672,Guadalupe
0.5667747306341345,-1.573065254822489,Madison
0.5891899942174977,-2.0501981297449428,Temescal Valley
0.6787393474788228,-1.342292585136043,Maryland Park
0.5892249008025376,-2.065546555186981,Rolling Hills
0.6887645187022782,-1.5258366452635228,Dresser
0.7398590325544122,-1.240953532777496,Somerville
0.7467181765147499,-1.2407039506944613,Haverhill
0.5464172102388728,-1.5588757280037753,Hattiesburg
0.6800378724423065,-1.3454708297039246,Friendship Heights Village
0.5916264738532818,-2.0623700559483513,Paramount
0.7260569688296411,-1.5304862023908354,Markham
0.56327010949613,-1.5723985390482276,Pearl
0.6288752907493448,-1.4030021178374137,Clemmons
0.6811129952615351,-1.3434445024423591,Hillandale
0.7161941132266212,-1.2892049052781314,Irvington
0.6506325652047061,-1.395532108638878,Roanoke
0.6100135175230421,-1.5716707367501457,Horn Lake
0.7201699732626643,-1.6764393610888613,Omaha
0.6964265141185333,-1.3150846474267033,Swarthmore
0.7267830257984706,-1.290299226719132,Crown Heights
0.5645825970936297,-1.5056396951594444,Montgomery
0.7104851412433477,-1.5655516123926536,Norwood
0.747650182335315,-1.5487022037939004,Whitewater
0.5790758112021906,-1.9471399280731818,San Tan Valley
0.7099947037235372,-1.2842778407997513,Roosevelt
0.5923054069323076,-1.4725395258953717,Sandy Springs
0.7348080496991406,-1.3248672178841316,Binghamton
0.5597899229676533,-1.47000007183372,Americus
0.5895495320434087,-2.058792130981763,Garden Grove
0.7348516829304406,-1.534610415413298,Prospect Heights
0.692855570468953,-1.8346412404773833,Lakewood
0.7103577322079521,-1.2812793651448253,North Amityville
0.735293251231195,-1.5330134391477233,Northbrook
0.6568982972193659,-1.3527383807092292,Laurel
0.5860658548564278,-1.958802218135008,Glendale
0.6975766860955976,-1.4465864799182162,Whitehall
0.6841254335504773,-1.4704590934269945,Mulberry
0.5845596357119569,-1.4113971515395063,Orangeburg
0.6524669062485522,-2.1297467463923403,Sunnyvale
0.5159716867670836,-1.6674264808315626,Missouri City
0.6235241112627302,-1.421712047418793,Icard
0.700816017187299,-1.3917674334423262,Smithton
0.5062816187600111,-1.4191499040768654,DeLand Southwest
0.522651061814466,-1.6391504016200025,Groves
0.6578878989052466,-2.1313245240361436,Ashland
0.6595669056456651,-2.1330820705929017,Oakland
0.6677751891177944,-2.132132611479817,Green Valley
0.7138832972969807,-1.2926501852215684,Maywood
0.5930017933038534,-2.0673180643777553,Marina del Rey
0.6969483675648797,-1.3081713982595538,Ramblewood
0.6873944352394626,-1.7635714333361743,Colby
0.7343420467888582,-1.5363295647265125,Rolling Meadows
0.5220297246007559,-1.5716951713596738,Gretna
0.5984489658993277,-2.067101643550508,San Fernando
0.7388257976372317,-1.2428227804063823,Newton
0.6751369879027065,-1.348451852066331,Occoquan
0.6995314548578312,-1.7842221690457711,Wray
0.7156321172074789,-1.3344106782340368,Bloomsburg
0.8245476438489331,-2.1372097742738685,Tacoma
0.529396759373424,-1.4254959212371165,Jacksonville
0.4517348436474323,-1.40047837173903,Westview
0.7249556660716328,-1.2705054476722644,Meriden
0.5925532436860909,-1.4550617987659005,Athens
0.7023501615998021,-1.3139048048523552,Lansdale
0.4984747610158405,-1.4140675052950578,Christmas
0.6296013477181746,-1.5146944633187909,Oak Hill
0.6105964574932082,-1.4310547949047185,Southern Shops
0.7413827049914032,-1.2385973382873037,Lynn
0.6810030395186595,-1.6527098645787464,Merriam
0.6755872828497211,-1.575894433539972,Pasadena Hills
0.49650079363183486,-1.422293242059707,Doctor Phillips
0.5943055542550931,-2.04502322851278,Redlands
0.47511876496565236,-1.401042113087424,North River Shores
0.7472173406808202,-1.2372255094952362,Newburyport
0.8521535166277274,-1.7530540792636564,Bottineau
0.589395943069233,-1.4706982035345177,Avondale Estates
0.7502350149575185,-1.49652558580553,Walker
0.6787061862230349,-1.6525999088358707,Overland Park
0.6757461078116526,-1.5754179586541774,Flordell Hills
0.6509362524945532,-1.3683416242220583,Farmville
0.5159245628772798,-1.8215181098316382,Presidio
0.6949307669495742,-1.5065804276262693,Clermont
0.7459886288874162,-1.626734129321315,Hampton
0.7229433014440831,-1.452480456802201,Lindsey
0.5858005648101248,-1.4732376575961696,Riverdale
0.6988019072304977,-1.2944723089606502,Leisure Village East
0.7153720631489318,-1.292081207885418,Westwood
0.7299490530615884,-1.2464914624940742,Providence
0.7350750850746958,-1.3975427279371755,Erie
0.5954923781464493,-1.4659072747377935,Buford
0.6775036543684109,-1.3436120540505507,Glassmanor
0.5631845883627822,-1.9358249585325025,Kleindale
0.7224249386562409,-1.4230716589060965,Bedford
0.6122300856730749,-1.5111654075712584,Park City
0.5307197189464358,-1.5898308876171467,Westminster
0.4567212493203801,-1.3997837306967362,Lauderdale Lakes
0.7234808628536974,-1.4299377841834422,Westlake
0.5719496318662978,-2.0423912720007724,La Mesa
0.6307009051469309,-2.0095197408687113,Winchester
0.7033449992734389,-1.3405332932500327,Colonial Park
0.7324134579654044,-1.4602052840715278,Dundee
0.7452014853947668,-1.2879901561187435,Roessleville
0.5903209675727901,-2.064604077390904,West Carson
0.6975208355595338,-1.4474765978367332,Bexley
0.5709146516198651,-2.0420823487231696,La Presa
0.7421489045330287,-1.4528522119328757,Beverly Hills
0.6953391739945409,-1.3131804932127775,Paulsboro
0.6071284882694955,-1.3682456311131987,Garland
0.7499068930581436,-1.3754328969729113,Eggertsville
0.5935672799814995,-2.0602198103098943,Rose Hills
0.5323166952120105,-1.474073670307875,Midway
0.4512653500786459,-1.3996737749538606,El Portal
0.567568855443792,-1.6539123964333706,Longview
0.5288434900005419,-1.706097741068001,Austin
0.6796730986286398,-1.342618961706166,Bladensburg
0.8233311493602931,-2.136492443951299,Midland
0.6055158040406527,-2.0625480795320548,Lancaster
0.7112199248584372,-1.2847787502950738,Carle Place
0.7266538714338231,-1.4218813443562364,Willowick
0.750707999184809,-1.5353835962719318,West Milwaukee
0.5326832143549293,-1.5217508294846038,Ferry Pass
0.7080032830470118,-1.4000036421824873,Leetsdale
0.7033258006516669,-1.3942632542726783,Clairton
0.8286544035788758,-2.132649228938407,Renton
0.44494551285717443,-1.403878273121915,Leisure City
0.5305504220089923,-1.530042888760829,Foley
0.5493511087114752,-1.467839354219751,Putney
0.7164803472239482,-1.2844471377371949,Cos Cob
0.6839404286497659,-1.3374999110100665,Ferndale
0.4527960038326449,-1.4004975703608018,Miami Gardens
0.7117522502802955,-1.2947358536777016,Silver Lake
0.7051775949880329,-1.3004971855385348,Deans
0.5929162721705057,-2.057589599127139,Rowland Heights
0.7238369100211043,-1.5240145215244405,Merrillville
0.6937474337167221,-1.3211269772971077,Pike Creek
0.5423663010449938,-1.7057050419863022,Killeen
0.7271704888924135,-1.4587933127066646,Toledo
0.6572072204969688,-1.353982800465901,Innsbrook
0.6719395447130528,-2.119737283132153,Parkway
0.5919580864111608,-2.065934018280924,Del Aire
0.6572019845092127,-1.3547263107272505,Short Pump
0.7130298312927554,-1.2934094034461858,Wallington
0.5265763073022012,-1.426005557378699,Orange Park
0.7296977256493012,-1.5418482958213184,North Aurora
0.7340627941085391,-1.2900060114047969,Tivoli
0.5838405600601351,-1.5496987867967893,Mississippi State
0.731608861180235,-1.5381708870873667,Carol Stream
0.5899823736979032,-1.469083773976423,Stone Mountain
0.7123945314450295,-1.430011088012026,Wooster
0.5246686624297714,-1.6647474004297513,Spring
0.4506719381329678,-1.400481862397534,Brownsville
0.6939778171779853,-1.830428015663069,Denver
0.7399480443462639,-1.239751000922872,Chelsea
0.70853560846887,-1.3172977249182323,Allentown
0.7192205141495793,-1.4056497823126892,Masury
0.599599137876392,-2.0780867458625605,Santa Paula
0.6497860805174889,-1.4037316654647474,Blacksburg
0.7184490786201978,-1.4228046235305416,Cuyahoga Falls
0.604206807101657,-1.6135778374197816,Alexander
0.7409219380688769,-1.246226172447771,West Concord
0.5284542815773471,-1.4207765509397239,Jacksonville Beach
0.7410912350063202,-1.45522760504484,Farmington
0.6070394764776438,-1.6117225524249115,Cammack Village
0.4493594505354681,-1.4015849104847944,Coral Terrace
0.558667676258621,-1.6949765030742932,Hillsboro
0.6876998678585616,-1.339564635515176,Garrison
0.6573957160561841,-1.3523474269567823,Glen Allen
0.7121658933130182,-1.2951093541376284,Glen Ridge
0.5934451069338599,-2.0631624354287568,Vernon
0.7135761193486296,-1.295786541887402,Singac
0.6795579068980082,-1.3406676836024363,Mitchellville
0.4564856298713609,-1.4014941533636907,Sunrise
0.6818966480956806,-1.3447185927963152,Glenmont
0.5838143801213552,-1.4742970724521303,Fayetteville
0.6752242543653062,-2.119557514219198,Rio Linda
0.7278616392762033,-1.5320412907543626,Chicago Ridge
0.5876436325002308,-1.9610048236510247,Sun City West
0.7095025208744749,-1.2843005300800272,Freeport
0.6333503149514583,-2.00867849216925,North Las Vegas
0.6809297356900758,-1.3383184704292521,Crofton
0.5308558546280913,-1.5237195608808536,Myrtle Grove
0.6772296376758477,-1.3411441584882307,Melwood
0.5104808809403095,-1.6561656164976952,Galveston
0.4580668981736678,-1.7131052380147582,Lopezville
0.6591550079421945,-2.133961716535907,Alameda
0.46702567322415467,-1.3975915971562312,Mangonia Park
0.7438104579809274,-1.4544369708936866,Sylvan Lake
0.4981885270185134,-1.4217958232228887,Orlovista
0.6829804975611691,-1.3573093980202022,Round Hill
0.6490635142071632,-1.3895142133780014,Moneta
0.6731717471649609,-1.34443410412824,Pomfret
0.7246118362089898,-1.422307204693723,Lyndhurst
0.695621917333364,-1.3096339841727251,Magnolia
0.6764913634022541,-2.114839889251057,Granite Bay
0.5180207033089249,-1.4372070805179986,Gainesville
0.4625873009363331,-1.3981675558093893,Golf
0.6829176657080973,-1.3184147356395084,Rodney Village
0.6791425185360335,-1.3528605537568685,South Riding
0.5943893300591888,-1.3777576755365677,Live Oak
0.5961206966771673,-2.0481037346425497,Muscoy
0.7180144916364513,-1.406382820598527,Maplewood Park
0.7251424163015961,-1.268067222707228,Middletown
0.5850500732317672,-1.4328891359485647,Martinez
0.6944141494909839,-1.3085466440487326,Pine Valley
0.6911765637285344,-1.3220397844959006,Glasgow
0.5194920158683562,-1.667342705027467,Bunker Hill Village
0.7166234642226117,-1.2826808645341765,Noroton
0.7139251851990285,-1.293639786907449,Elmwood Park
0.6782140033739725,-1.34195748191966,District Heights
0.6744720174576967,-1.5765611493142337,Clayton
0.7176916057248323,-1.674135526476229,Offutt AFB
0.5665286392096034,-1.5089645473844935,Prattville
0.7515038693237184,-1.2353894231221383,Portsmouth
0.7118604606939192,-1.2845186962365267,Old Westbury
0.6778090869875099,-1.3409329736487394,Westphalia
0.6973358306588224,-1.4431743612305672,Etna
0.504487420288961,-1.4174464627269188,Deltona
0.6127048152296174,-1.8613325607281328,Albuquerque
0.7290798790940953,-1.2623949026382464,Coventry Lake
0.7178033067969599,-1.4245656607458037,Fairlawn
0.5732778274270655,-1.695325568924692,Bedford
0.5973947870311231,-1.3916504963824425,Quinby
0.5842437311173458,-1.5170297138579592,Fairfield
0.7058931799813506,-1.3974589521330798,Ingram
0.7324501098796963,-1.532498567018385,Harwood Heights
0.6084566838302632,-1.438587635956326,City View
0.5924467786017191,-2.06285002149265,South Gate
0.618689549234706,-1.7006627857772907,Del City
0.7084343793722543,-1.2996698994730893,Dunellen
0.710101168807909,-1.2805655254807595,Lindenhurst
0.6763831529886305,-1.3530630119501,Innovation
0.6635427656817082,-2.127495271657268,Pittsburg
0.45459369296219904,-1.4012585339146713,Cooper City
0.7154348950020036,-1.4026705052795347,Oakland
0.7058792173473346,-1.301022529643385,Franklin Park
0.6683110051981568,-1.4934799862607997,Creekside
0.7489521979573027,-1.3736491704773732,Depew
0.5951886908566022,-1.417130558132308,Irmo
0.5926544727827066,-2.065499431297177,Inglewood
0.7133317732533504,-1.285063238963149,Glen Cove
0.7130961538043312,-1.2937811585768608,Passaic
0.6803869382927055,-1.340482678701725,Glenn Dale
0.6945118879290956,-1.471600538757799,Trotwood
0.7803157646156408,-1.3172296570774045,Ogdensburg
0.7378798291826507,-1.4553899206652754,Wayne
0.7254216689819152,-1.5310918316412776,Country Club Hills
0.5646838261902454,-1.5767356822394334,Clinton
0.6749415110264833,-2.11834276505981,North Highlands
0.6694856117847489,-2.12873096476768,Vacaville
0.5925968769173907,-1.47553974687955,Marietta
0.71346267294725,-1.2929643444869272,Lodi
0.7534237315009121,-1.354658242886423,Rochester
0.7195678346707262,-1.2739681809082208,Woodmont
0.7311027156971567,-1.534345125366995,Berkeley
0.5938657312835907,-1.4768574704648059,Kennesaw
0.6856089634146725,-1.4731818070601057,Sharonville
0.5754629796505624,-1.687895702298952,Richardson
0.6740042692181623,-1.3440379143880372,Bensville
0.7394960040699974,-1.242279983009012,Watertown Town
0.4525673657006336,-1.3991589028245222,North Miami Beach
0.7457338108166253,-1.5326347027000407,Racine
0.7142567977569075,-1.2968407207556067,Lincoln Park
0.5734855216080528,-1.6924492663174056,Irving
0.6762871598797707,-1.345336439351521,Hybla Valley
0.7154174417094836,-1.2894475060441588,Hastings-on-Hudson
0.711911075242227,-1.2957586166193702,Llewellyn Park
0.44960903261850327,-1.3987347878162875,Fisher Island
0.5808892082950127,-1.9521752029651855,Chandler
0.6731211326166531,-1.3495461735073315,Dumfries
0.4517680049032202,-1.7002247081350401,Villa Pancho
0.6639633900314388,-1.4740823969541348,Lexington
0.5637361124064125,-1.4665059226712276,Montezuma
0.7189482427862682,-1.2920602639343943,Mount Ivy
0.7059664838099344,-1.2958964976302776,Laurence Harbor
0.6806085951077088,-1.3427463707415614,College Park
0.6709272537468962,-1.3126481677909192,Bishopville
0.7117033810612398,-1.953566230379025,Salt Lake City
0.7535336872437879,-1.5354534094420114,Brown Deer
0.5172789383768274,-1.7155312456750302,Garden Ridge
0.7090417539519485,-1.2957027660833063,Linden
0.7268109510665026,-1.2390476332343183,Smith Mills
0.7140107063323762,-1.2762144196555378,Stony Brook University
0.6567324909404263,-1.3513874958681853,Chamberlayne
0.6835355122633032,-1.5101583525928577,Bloomington
0.6256027984018555,-1.7093510347937184,Kingfisher
0.8141838787505907,-1.6089928574747925,Oliver
0.572497665251424,-2.041344074449576,El Cajon
0.8227778799874108,-2.136939248239809,Parkland
0.5477314431656245,-1.4821824700126405,Blakely
0.7190564531998919,-1.2763173940814054,Stratford Downtown
0.6082594616247878,-1.6092441848870798,Sherwood
0.8252405395619749,-2.1393687465585853,Wollochet
0.6553990593919027,-1.3496369306284353,Highland Springs
0.5678044748928113,-1.616808441865223,Ruston
0.5081107238161012,-1.4314300406938973,Silver Springs Shores
0.7279105084952591,-1.2467480258941175,Warwick
0.5824373153415318,-1.5179617196785244,Bessemer
0.5880171329601576,-2.045262338620303,Menifee
0.5183540611960559,-1.7188665698755916,Timberwood Park
0.7296732910397734,-1.5320465267421184,Forest View
0.5713003693845559,-2.042635618096052,Lemon Grove
0.45046075329347646,-1.4014540107908946,Virginia Gardens
0.7385605075909285,-1.4534560958540659,Dearborn Heights
0.6276762495532248,-1.3703278089108277,Wake Forest
0.6867189928189409,-1.339203352360013,Lochearn
0.7247305185981254,-1.4228709460421172,South Euclid
0.45146431761337324,-1.3993683423347614,Miami Shores
0.5723545482527604,-1.688897521289597,Dallas
0.7040658202545126,-1.3251709051739786,Reading
0.5247594195508751,-1.6742559541946165,Waller
0.5783113569898171,-2.0432970978825575,Escondido
0.6123487680622105,-1.3784121740060655,Fayetteville
0.6878604381497452,-1.3402610218867217,Owings Mills
0.5706127096592701,-1.6957043053723748,Dalworthington Gardens
0.5859401911502843,-2.045367058375423,Murrieta
0.623899357051909,-1.4657083072030659,Maryville
0.5887187553194593,-2.0561846090792835,Tustin
0.6782419286420044,-1.3394686424063162,Brock Hall
0.4932352826013535,-1.4216143089806812,Campbell
0.45429698698936,-1.3991938094095622,Hollywood
0.5252952356312374,-1.424494102246472,Fruit Cove
0.61745909211205,-1.3608628883772627,Goldsboro
0.6299800841658572,-2.011729327701736,Spring Valley
0.564203860645947,-1.8638248908999806,Las Cruces
0.6108181143082115,-1.4875179415359872,East Ridge
0.7112565767727292,-1.5640837904917262,Peoria
0.5863171822687151,-1.5033655311440957,Lincoln
0.7135900819826456,-1.2731374041842718,Middle Island
0.7194508976108426,-1.2783524479892308,Sacred Heart University
0.5952009081613662,-2.0569822245474447,Charter Oak
0.6970565779785033,-1.3092011425182306,Cherry Hill Mall
0.666359727094427,-2.1338098728909833,American Canyon
0.647606164281748,-1.3354997636872812,Newport News
0.6773727546745113,-1.3430221327633767,Temple Hills
0.7674806132964744,-1.3248689632133837,Watertown
0.5882579883969329,-1.4667171075107186,Lakeview Estates
0.5643679215956344,-1.5721960808549962,Flowood
0.681730841816741,-1.3412087356705547,South Laurel
0.7035404761496622,-1.3368227232602927,Palmyra
0.45172262634266835,-1.3994294288585813,Biscayne Park
0.6853384373806134,-1.4751418118100954,Greenhills
0.5590970272546116,-1.4145527068271122,Thunderbolt
0.7515667011767901,-1.536495371005452,Wauwatosa
0.5213891887652741,-1.7092986749161585,San Marcos
0.5751645283484714,-1.6955926043002472,Southlake
0.5345297727035394,-1.5338232719206488,Daphne
0.5713893811764076,-1.691023332318526,Cockrell Hill
0.6123732026717384,-1.411823011876993,Pineville
0.7109895413971741,-1.2812706384985653,East Farmingdale
0.6743236644712771,-1.5750741287915346,St. Louis
0.6560308685811246,-1.3541276627938166,Tuckahoe
0.7395099667040135,-1.5348285815697975,Gurnee
0.7265526423372075,-1.270051662066746,Kensington
0.6320029207689187,-1.4253562948969571,Boone
0.5973843150556112,-1.6384330712974329,Newhope
0.7173181052649055,-1.407543464551103,Youngstown
0.6863926162488179,-1.3498777860652103,Urbana
0.5694677736699619,-2.0422865522456526,Chula Vista
0.5909196155062241,-2.0595688024989007,Buena Park
0.5158233337806641,-1.7163637677282317,Live Oak
0.48945315411228185,-1.4377551139031248,Temple Terrace
0.6122789548921308,-1.3455528601787683,Trent Woods
0.6819524986317443,-1.3439209773281537,Colesville
0.7443218394517618,-1.286880126714475,Rensselaer
0.45203504027877534,-1.400715736517301,Opa-locka
0.6760340871382315,-1.3440239517540213,Fort Washington
0.7090679338907283,-1.3154180053138345,Bethlehem
0.7521705850979803,-1.3129431284345063,Utica
0.69439320553996,-1.3261029109945435,Oxford
0.6914802510183814,-1.3208791405433247,Bear
0.589416887020257,-1.471247982248896,Decatur
0.6927700493356052,-1.3547350373735105,Leitersburg
0.5951956721736104,-2.0604990629902136,Temple City
0.6544670535713376,-2.133973933840671,San Carlos
0.7099842317480253,-1.2955823383649185,Kean University
0.5564301641575642,-1.4244173077593842,Fort Stewart
0.5917870441444654,-2.060935395303212,Norwalk
0.7534551474274481,-1.3734973268324495,Lockport
0.45226542374003864,-1.3997767493797282,Golden Glades
0.6844744994008762,-1.4757107891462455,North College Hill
0.7313453164631839,-1.5335091126552898,Melrose Park
0.4979075290089423,-1.4169769691581324,Alafaya
0.5677119724424556,-1.618136637425991,Grambling
0.673133349921417,-2.120025262458732,Sacramento
0.4974415260986599,-1.420485080954641,Holden Heights
0.5809101522460367,-1.5163263461694054,Helena
0.5146958510838757,-1.7200272138281676,Balcones Heights
0.5959915423125196,-2.0257321042904866,Twentynine Palms
0.7209326821457857,-1.421708556760289,Twinsburg Heights
0.6651886111663388,-2.1333892485412527,Vallejo
0.5908009331170886,-2.0601988663588706,La Palma
0.6832353156319603,-1.3451514344508098,Olney
0.6589630217244751,-2.137066657275205,San Francisco
0.5228203587519095,-1.574075800459394,Elmwood
0.6568162667445221,-2.1306386096401098,Hayward
0.7078601660483482,-1.5825807899043625,Good Hope
0.7309404000767212,-1.5331705187804028,Maywood
0.5354355985853244,-1.5379178143458274,Mobile
0.6533395708745493,-2.1274184771701803,Milpitas
0.687305423447611,-1.299444751999582,Atlantic City
0.6971543164166151,-1.3135487576849485,East Lansdowne
0.7278302233496673,-1.2671125276063873,Glastonbury Center
0.7114380910149366,-1.2805567988344997,Wheatley Heights
0.5865440750714743,-1.4720298897537893,Lake City
0.6736517127092594,-1.5708888292452523,Fairview Heights
0.6757722877504324,-1.5790848954126178,Maryland Heights
0.7159689657531139,-1.2872623538206618,White Plains
0.6584429136073807,-2.110858793227258,Riverbank
0.6871762690829635,-1.340454753433693,Randallstown
0.7149147868849093,-1.2901438924157043,Alpine
0.663931974104903,-1.3703696968128758,University of Virginia
0.6947527433658708,-1.3251918491250025,Lincoln University
0.5193890414424885,-1.667061707017896,Piney Point Village
0.6070621657579197,-1.436461824927397,Mauldin
0.714096227465724,-1.2943780611810427,Paterson
0.650396945755687,-1.3508307358367992,Colonial Heights
0.45658685896797657,-1.4001746844491831,Lauderhill
0.6800954683076225,-1.343538750221967,Chillum
0.5727612099684751,-1.3957171135395894,Charleston
0.6404433330315632,-2.1236206407178404,Boronda
0.62847735567989,-2.011104499829522,Enterprise
0.7115079041850163,-1.2712437219458579,Mastic Beach
0.5826781707783069,-1.589146718550365,Greenville
0.6190560683776247,-1.3511763110286943,Ayden
0.4512915300174258,-1.4003945959349342,West Little River
0.6127641564241852,-1.4077790840001223,Stallings
0.694058102323577,-1.3100668258272197,Turnersville
0.6963165583756578,-1.3909855259374326,East Uniontown
0.60390311981181,-1.519860637904694,Trinity
0.7506905458922891,-1.3096880893795368,Ilion
0.6675709855953111,-1.4935602714063916,Wildwood
0.5538191515965807,-1.6248579003754209,Natchitoches
0.7421297059112568,-1.252652474753614,Leominster
0.7159968910211458,-1.2866445072654558,Harrison
0.6770411421166324,-1.3451950676821096,Huntington
0.7687302690409025,-1.3226890469776427,Fort Drum
0.6609945849737965,-2.134118796168586,Berkeley
0.7543854079187611,-2.1528985389200455,Roseburg
0.7375674152465438,-1.4523006878892457,Allen Park
0.48565531765994213,-1.437734169952101,Gibsonton
0.7124015127620374,-1.2822986374279899,Woodbury
0.5838178707798591,-1.4347880541747344,Grovetown
0.7154139510509797,-1.2876567982316125,Scarsdale
0.575543264796154,-1.6810575022896384,Royse City
0.5959932876417716,-1.733111947230369,Vernon
0.7376075578193396,-1.4828282418358785,Marshall
0.667598910863343,-2.1430688445728134,Petaluma Center
0.5725814410555197,-1.460795205358702,Macon
0.5943020635965892,-1.415561507134765,St. Andrews
0.7308461522971136,-1.2457165363061888,Pawtucket
0.6425604174142324,-1.3520873728982352,Jarratt
0.6863856349318099,-1.4328926266070685,Athens
0.5689633735161356,-1.6905835093470234,DeSoto
0.712214762532074,-1.2770766123060229,Islandia
0.7198942112408491,-1.3242860232432176,Wilkes-Barre
0.7510431024011919,-1.3083616391480213,East Herkimer
0.697435314426186,-1.3195701436043288,West Chester
0.6351270601299884,-1.3512216895892462,Jackson
0.635282394433416,-1.3670029566857786,Middleburg
0.4486909894319543,-1.4033808542850965,Kendale Lakes
0.6285506595084739,-2.007793610238489,Henderson
0.5879438291315738,-1.4659090200670453,Milstead
0.8451390383639622,-2.0859459634842907,Omak
0.6474682832708404,-1.3338556635319025,Bethel Manor
0.7098376240908577,-1.2809355352821823,Copiague
0.6300778226039689,-2.0077901195799845,Whitney
0.538331099814383,-1.454007619897696,Remerton
0.5954033663545976,-2.066588516750422,Los Angeles
0.8072252510228893,-2.079219464547105,Pasco
0.6914174191653096,-1.831079023474063,Greenwood Village
0.6293325670133674,-2.076503732231002,East Porterville
0.4535272967892305,-1.3993648516762576,Pembroke Park
0.7827592255684328,-1.6311759922676405,Eden Prairie
0.6135355919535667,-1.5742800039818774,West Memphis
0.7505352115888615,-1.3751222283660565,University at Buffalo
0.6212551832351376,-1.374931987477589,Fuquay-Varina
0.5919319064723808,-1.4807652626600212,Dallas
0.6865270066012215,-1.473118975207034,Olde West Chester
0.5768173551501099,-2.0465905341810706,Encinitas
0.6072436800001271,-1.609123757168692,McAlmont
0.5694625376822059,-2.027768903527564,Jacumba
0.6869127243659122,-1.3347702160599473,Rossville
0.6630121855891019,-2.130523417909478,Pacheco
0.7280902774082145,-1.2891089121692718,MacDonnell Heights
0.6533465521915572,-1.3552865614171405,Brandermill
0.7101238580881849,-1.2838903777058086,North Merrick
0.6101950317652495,-1.430669077140028,Saxon
0.6106941959313199,-1.3800213675764044,Rockfish
0.606039402816251,-1.4447626108498821,Central
0.6577587445405989,-2.1251251145330596,Livermore
0.6772785068949035,-1.3439995171444934,Forest Heights
0.5697801876060689,-1.6914457019975087,Duncanville
0.5879752450581097,-2.046609732802843,Canyon Lake
0.7140264142956442,-1.415791890596028,Alliance
0.6628708139196904,-2.116429884199624,August
0.7134748902520139,-1.2934373287142178,Garfield
0.6818233442670969,-1.476459535395351,Villa Hills
0.5910260805905958,-1.4750964332495435,Smyrna
0.5874935341845592,-1.4732202043036497,Hapeville
0.71839846407189,-1.417943881563737,Ravenna
0.588816493757571,-2.0574272835067036,Santa Ana
0.6809716235921236,-1.3529216402806885,Broadlands
0.6330396463446033,-1.718746142157204,Fairview
0.6787376021495709,-1.3402191339846736,Kettering
0.6093939256385842,-1.4366223952185804,Taylors
0.5700873655544199,-1.428197690919204,Rocky Ford
0.5920034649717126,-1.475579889452346,Fair Oaks
0.6758595542130322,-1.3517156177675602,Buckhall
0.6138933844502255,-1.4216055823344214,Grover
0.6796032854585601,-1.3430168967756206,Cottage City
0.6950407226924498,-1.832658546447118,Twin Lakes
0.6991754076904245,-1.3208477246167887,Eagleview
0.6404625316533351,-1.3853969816725469,Blairs
0.5228343213859253,-1.5707718921853686,Arabi
0.8257676289960771,-2.1365517851458664,Dash Point
0.7253431291655754,-1.5299730755907492,Homewood
0.7231754302345984,-1.4268014275176084,Brooklyn
0.5840203289730905,-1.5151028703637575,Homewood
0.6648674705839719,-1.340812545930352,Montross
0.6298404578256978,-2.0094935609299314,Paradise
0.6847886586662352,-1.3375627428631385,Baltimore Highlands
0.5932129781433446,-2.0627645003593025,Maywood
0.6696706166854604,-2.1208455672071698,Hood
0.4586463474853299,-1.3978184899589907,Lighthouse Point
0.5267333869348807,-1.4265884973488652,Bellair-Meadowbrook Terrace
0.5936824717121312,-2.0614223421645184,Montebello
0.4647288199285301,-1.398656247999948,Greenacres
0.7178504306867638,-1.2921545117140019,Hillcrest
0.4771503282149738,-1.4406506151321834,Sarasota
0.7691945266219329,-1.8015358352255548,Rapid City
0.6891292925159451,-1.538998173152812,Charleston
0.6776520073548303,-1.3419784258706842,Morningside
0.7338481186105438,-1.5305542702316632,Evanston
0.7225924902644323,-1.282309109403502,Danbury
0.7855569883593797,-1.247798714103818,Beecher Falls
0.6739501640113503,-1.345388799229081,Bryans Road
0.5929913213283414,-2.060691049207933,West Whittier-Los Nietos
0.6510287549449089,-2.1266487869700508,San Jose
0.6269624098891591,-1.3694830695528626,Rolesville
0.5699564658605203,-1.6989139658667922,Edgecliff Village
0.65683197470779,-2.1113597027225803,Airport
0.44952002082665155,-1.4032726438714729,Tamiami
0.8256088040341456,-2.1329808414962863,Auburn
0.6985697784399825,-1.4462443953848252,Gahanna
0.6392216025551671,-2.123131948527282,Spreckels
0.5631950603382943,-1.9328421908408444,Tanque Verde
0.7149584201162091,-1.341985407187692,Lewisburg
0.7423478720677562,-1.2432660940363889,Pinehurst
0.7069787747760911,-1.3029284291865628,Hillsborough
0.6972625268302387,-1.3098765849387521,Merchantville
0.6848061119587551,-1.3380723790047206,Lansdowne
0.7116719651347038,-1.294891187981129,Ampere North
0.4498114908117346,-1.402302240807364,Fountainebleau
0.6821985900562756,-1.6467198945859018,Independence
0.5944329632904888,-2.0553451057090744,Pomona
0.787338969525666,-1.6292735833829666,Brooklyn Park
0.7307257245787259,-1.5341775737588035,Hillside
0.8231461444595816,-2.1385501871394,Lakewood
0.7261826325357846,-1.4219022883072603,Wickliffe
0.7096142219466025,-1.2858573637728063,Lynbrook
0.7080730962170916,-1.3021761922789534,Somerville
0.8256995611552493,-2.135162503061279,Federal Way
0.7111518570176095,-1.2860912378925737,North New Hyde Park
0.6762784332335109,-1.3523474269567823,Manassas
0.6455274771426227,-2.128959602899691,Live Oak
0.686378653614802,-1.3353234854328295,Rosedale
0.6813643226738223,-1.345982211174759,North Bethesda
0.685786986998376,-1.4761244321789682,Pleasant Run
0.7101814539535006,-1.2834976786241101,North Bellmore
0.6794462058258806,-1.3414199205100457,Glenarden
0.5909283421524841,-2.0660596819870674,Redondo Beach
0.6070900910259517,-1.4381984275331314,Gantt
0.5090374936489102,-1.4138126872242667,South Daytona
0.45225844242303065,-1.4018728898113733,Miami Lakes
0.6503236419271032,-1.4174569347024306,Bluefield
0.5921099300560844,-2.0571410495093763,Brea
0.7311201689896766,-1.2460498941933196,Central Falls
0.5176838547632902,-1.6620508667354201,South Houston
0.5735483534611245,-1.5779085434967735,Yazoo City
0.7277150316190357,-1.2901665816959802,Poughkeepsie
0.5761209687785642,-1.3981448665291134,Ladson
0.6543274272311782,-1.353321320679395,Manchester
0.5952078894783742,-2.0599056510445353,North El Monte
0.5298505449789426,-1.5905988324880245,Gardere
0.6760218698334676,-1.3459089073461754,Woodlawn
0.7524655457415673,-1.559832168433868,Maple Bluff
0.6051929181290338,-1.445733013913991,Clemson University
0.7099667784555054,-1.2965876480140675,Kenilworth
0.6693058428717934,-1.424750665646515,Charleston
0.5667433147075988,-1.4613345120975683,Perry
0.6318790023920271,-1.5070586478413157,Lebanon
0.5451291572509009,-1.490633354250797,Dothan
0.83595686116922,-2.1324746960132077,Eastmont
0.5913908544042626,-1.4713247767359838,Chamblee
0.7379286984017065,-1.4517334558823476,Melvindale
0.5271068873948075,-1.6268405944056865,Lake Charles
0.7433566723754089,-1.2534186742952398,Fitchburg
0.6795666335442682,-1.3411843010610267,Springdale
0.676856137215921,-1.3471131845300512,Springfield
0.5517579177499754,-1.6520030062316888,Nacogdoches
0.5765468291160509,-1.6908034208327747,Hebron
0.6290463330160403,-1.3754800208627151,Gorman
0.7039523738531329,-1.3840652954532753,Derry
0.7298670225867447,-1.531927844352983,Stickney
0.661722387271878,-2.1167894220255348,Taft Mosswood
0.6304059445033439,-1.514375068065676,Berry Hill
0.756237202255127,-1.3738725726216283,Olcott
0.6077288815321816,-1.4385440027250262,Dunean
0.6943670256011801,-1.5000371882605426,Cumberland
0.5970753917780081,-1.3593776131838156,Wilmington
0.7238543633136242,-1.2483223128794163,Kingston
0.7269226521386303,-1.2260711102457407,West Yarmouth
0.6751753851462504,-1.3492547035222484,Lake Ridge
0.6535734449943167,-1.3516178793294487,Bensley
0.723297603282238,-1.4286043526349184,Fairview Park
0.6289817558337164,-1.6716868295356808,Broken Arrow
0.6810187474819275,-1.6460758680919159,Lake Tapawingo
0.5666263776477151,-1.6370402985543415,Shreveport
0.5909021622137042,-1.4661428941868127,Snellville
0.6796748439578918,-1.3420622016747796,Landover Hills
0.6974702210112259,-1.2956591328520064,Silver Ridge
0.7218158187472948,-1.296374717845324,Chester
0.594380603412929,-2.0579404103067898,West Covina
0.737759401464263,-1.2532842839428362,Worcester
0.7206185228804268,-1.6740692039646532,Carter Lake
0.6704874307753936,-2.118553949899301,Elk Grove
0.6799750405892347,-1.6626739492783822,Lawrence
0.5154114360771934,-1.658404873928004,Kemah
0.6578425203446947,-2.1377037024521828,Broadmoor
0.5980580121468809,-1.4867814125916456,Rome
0.7352496179998952,-1.3408561791616518,Elmira Heights
0.7035858547102141,-1.3854859934643986,Latrobe
0.6270461856932549,-1.3794925328130503,Chapel Hill
0.7286400561225926,-1.5387852429840685,Naperville
0.4486630641639223,-1.4039219063532147,Kendall West
0.7145028891814387,-1.2945735380572658,Prospect Park
0.5836311205498959,-1.5174834994634778,Brighton
0.7255892205901067,-1.5304774757445754,Hazel Crest
0.696517271239637,-1.31367267606184,Sharon Hill
0.744236318318414,-1.4753407793448228,Holt
0.7857908624791471,-1.6312143895111841,Plymouth
0.5881113807397653,-1.5098197587179707,Argo
0.5753216079811508,-2.046614968790599,Del Mar
0.617729618146109,-1.4073794036014156,Concord
0.6233583049837907,-1.3929943999064784,Asheboro
0.45461638224247497,-1.4028101316196944,Southwest Ranches
0.6008906815228677,-2.0895116711461155,Santa Barbara
0.7328689889001749,-2.0546173034109927,McDermitt
0.7487235598252914,-1.3202508220126066,Morrisville
0.6826576116495501,-1.3420255497604878,West Laurel
0.7089806674281286,-1.2864263411089565,Woodsburgh
0.6821968447270237,-1.6490010399182586,Blue Summit
0.7832391911127313,-1.6280937408086185,Richfield
0.7549770745351871,-1.6342669703729225,Forest City
0.7281094760299863,-1.5053569518206213,Roseland
0.6923110277423307,-1.3214795338060106,Brookside
0.692841607834937,-1.3152120564620988,Auburn
0.705458592997604,-2.0346228115001455,Crescent Valley
0.6089296680575537,-1.3851840515038036,Wagram
0.5218778809558324,-1.571283273656203,Terrytown
0.6810100208356674,-1.3446836862112754,Forest Glen
0.6812735655527187,-1.6512682226165991,Mission Woods
0.5963702787602024,-1.3973961202800078,Lamar
0.6203004881342966,-1.3664741219224243,Selma
0.6041893538091371,-1.717756540471323,Lawton
0.4554925375269761,-1.3999111397321318,Broadview Park
0.6994843309680274,-1.3112309604383,Elkins Park
0.5949879779926229,-2.0574255381774513,Covina
0.7275404986938363,-1.2375501407361074,Acushnet Center
0.5684415200697891,-2.044094713350719,Imperial Beach
0.7560993212442195,-1.368147892675087,Lyndonville
0.6061301599373548,-1.4356537374837237,Simpsonville
0.5944364539489927,-1.4125106716022788,Woodfield
0.6859423213018034,-1.4756636652564417,Pleasant Run Farm
0.75101517713316,-1.327879656173074,De Witt
0.7124486366518413,-1.293388459495162,Rutherford
0.5316621967425127,-1.523881876501289,Bellview
0.4520542389005473,-1.399206026714326,North Miami
0.6902428125787174,-1.3284503788384758,Havre de Grace
0.46169892834706794,-1.4329554584601405,Sanibel
0.5914571769158383,-2.0617068308325934,Bellflower
0.7520065241482927,-1.3297157425461719,Galeville
0.7487305411422994,-1.3513072107225936,Bloomfield
0.7824415756445698,-1.6286557368277605,Bloomington
0.7084064541042225,-1.2857142467741427,Long Beach
0.7290275192165355,-1.3030104596614065,Loch Sheldrake
0.6646283604764486,-1.3696157145760144,Rio
0.6223809206026739,-1.769784805473274,Borger
0.6907943366223477,-1.3440204610955173,Westminster
0.7498266079125518,-1.494982714746767,Grand Rapids
0.7271914328434373,-1.5299154797254335,Calumet Park
0.7303208081922632,-1.2798970643772458,Cornwall
0.6026220481408462,-2.0482067090684177,Victorville
0.5914659035620984,-2.0653353703474897,Alondra Park
0.5757335056846214,-2.0423860360130166,Poway
0.6619859319889293,-2.1161349235560367,Kennedy
0.5151339287261264,-1.7170863340385574,Windcrest
0.6314740860055643,-1.4021556331501963,Bethania
0.5914816115253664,-2.06641223849597,Manhattan Beach
0.7286662360613726,-1.5330012218429594,Justice
0.7486083680946598,-1.3751763335728682,Sloan
0.6631849731850494,-2.1350612739646633,Montalvin Manor
0.7232784046604662,-1.292159747701758,Firthcliffe
0.602046089487688,-1.380792803105786,Fairmont
0.5662005173102285,-1.4959758070911515,Tuskegee
0.7353421204502509,-1.452766690799528,Woodhaven
0.5925794236248708,-1.4659578892861012,Lawrenceville
0.5915671326587141,-2.0648501688154353,Gardena
0.703306602029895,-1.2913952934893844,Long Branch
0.5733546219141532,-1.6943656378360952,Euless
0.46506217781566106,-1.4009740452465964,Wellington
0.7334309849193171,-1.2429885866853216,Mansfield Center
0.6548475353482724,-1.3504869059741564,Montrose
0.6296449809494743,-1.3896451130719012,Sedalia
0.569712119765241,-1.687895702298952,Hutchins
0.6596070482184611,-2.115799820339654,Manteca
0.7182605830609824,-1.2761795130704976,Lordship
0.45850148515741435,-1.4007855496873811,Coral Springs
0.614036501448889,-1.4812731534723513,Cleveland
0.49281640358087486,-1.4185669641066991,St. Cloud
0.5984646738625956,-1.3599902237512655,Wrightsboro
0.7004198274470964,-1.3113950213879875,Roslyn
0.6805806698396768,-1.6487095699331755,Raytown
0.4970226470781812,-1.4195984536946278,Orlando
0.5930716064739331,-1.4692862321696543,Berkeley Lake
0.5198009391459592,-1.6746678518980873,Brookshire
0.5871270150416404,-1.4719688032299696,Conley
0.7169254061832068,-1.2822916561109818,Darien Downtown
0.65130102630822,-2.1301150108645115,Cupertino
0.522621391217182,-1.5759747186855637,Ama
0.47684838625437875,-1.4020369507610608,River Park
0.7889830696810446,-2.163398439700043,Pacific City
0.7244861725028462,-1.5295105633389707,Chicago Heights
0.6929585448948207,-1.8314647412387537,Glendale
0.6963270303511697,-1.499600855947544,McCordsville
0.7446359987171207,-1.4513512287761607,Rochester Hills
0.7639620295244539,-1.5435639544760291,Fond du Lac
0.7434701187767886,-1.446565535967192,Mount Clemens
0.6407749455894423,-2.090218529493173,Calwa
0.5905530963633053,-2.03268375070118,Cathedral City
0.523558633025503,-1.5739030128634464,Metairie
0.6548492806775245,-2.129837503513444,Newark
0.620824086909895,-1.7026856223803521,The Village
0.7797677312305146,-1.627554434069752,Lakeville
0.6771807684567919,-1.576501808119666,Florissant
0.7241196533599273,-1.2749944345083937,Naugatuck
0.5833553585280807,-1.6428260650247024,Wake Village
0.7107696299114228,-1.2830351663723316,Levittown
0.6766693869859576,-2.1174264672025127,Roseville
0.7399707336265399,-1.4551385932529883,Livonia
0.6200893032948054,-1.7037589998703286,Warr Acres
0.4515114415031771,-1.4000577473892992,Pinewood
0.6981753340290316,-1.309625257526465,Palmyra
0.6633368168299728,-2.1337767116351953,Hercules
0.6879005807225411,-1.2981532083531062,Brigantine
0.6169128040561757,-1.3178440129741065,Avon
0.7498475518635758,-1.4630239908134988,Swartz Creek
0.5698081128741007,-1.4617813163860789,Byron
0.6968890263703119,-1.3096915800380409,Golden Triangle
0.5276671380846977,-1.621773903587147,Lacassine
0.6003496294547496,-2.047527775989392,Hesperia
0.6691051300078141,-1.4286392592199586,Tornado
0.7425433489439796,-1.4524036623151133,Birmingham
0.6573817534221682,-1.7027728888429519,Goddard
0.5850046946712154,-1.4108054849230804,Brookdale
0.5774840709243718,-1.4528365039696078,Milledgeville
0.5599435119418288,-1.6836580428751098,Corsicana
0.7368169236681862,-1.4972446614573514,Mattawan
0.517090442817612,-1.667930880985389,Stafford
0.7229415561148312,-1.2581275726171206,Gales Ferry
0.7858536943322189,-1.6289716414223716,Robbinsdale
0.6068335276259084,-1.4830411720046217,Dalton
0.752828574225982,-1.328726140860291,North Syracuse
0.6943478269794081,-1.5018837466091524,Warren Park
0.7122671224096339,-1.6873563955600859,Lincoln
0.6952449262149333,-1.5043446608544644,Spring Hill
0.7112792660530052,-1.2791500634573922,Baywood
0.627883943734212,-1.4001101072668591,Midway
0.7512560325699352,-1.4953597058651977,Comstock Park
0.7372829265784686,-1.4517840704306553,Lincoln Park
0.7078392220973242,-1.3928669908710827,Harwick
0.6812718202234666,-1.3438738534383499,Burnt Mills
0.6967302014083804,-1.8316148395544252,Thornton
0.7542213469690736,-1.3603166003213885,Brockport
0.5962812669683507,-1.4800549136544594,Cartersville
0.7185415810705535,-1.4078855490844937,Churchill
0.8223956528812241,-2.134281111789022,South Hill
0.4733053678728303,-1.438390413750851,Venice
0.7544726743813608,-1.505454690258733,Muskegon
0.6052173527385617,-1.447317772874802,Utica
0.6075089700464302,-1.5393420030154548,Iuka
0.6498855642848526,-1.3497067437985149,Fort Lee
0.7369827299471255,-1.4533147241846542,Taylor
0.7246153268674939,-1.4216300169439493,Mayfield Heights
0.5917661001934414,-2.0641712357364095,West Rancho Dominguez
0.7501791644214547,-1.4388284913931013,Port Huron
0.6575231250915797,-2.1316264659967383,San Lorenzo
0.7609722805157876,-2.0286101522270252,Boise
0.5928010804398741,-1.4123605732866074,Capitol View
0.6929899608213564,-1.364409397417315,Hancock
0.4914550467643193,-1.437123304713903,Pebble Creek
0.7431769034624535,-1.4491556045771519,Sterling Heights
0.6261037078971778,-1.4692548162431185,Farragut
0.610048424108082,-1.4314440033279132,Fairforest
0.6356820748321227,-1.4394899711796072,Gray
0.6095178440154757,-1.357384447178038,Beulaville
0.847050173894896,-2.1479016612715855,Friday Harbor
0.7084745219450501,-1.297037942961082,Colonia
0.7146337888753382,-1.292786320903224,Paramus
0.6813643226738223,-1.3451653970848256,North Kensington
0.7083401315926466,-1.2955299784873588,Carteret
0.5946406574714761,-1.4708552831671973,Alpharetta
0.6295036092800628,-1.3805397303642468,Hillsborough
0.5104075771117257,-1.4145282722175843,Holly Hill
0.6669129964673093,-1.4964121394041503,Parkway Village
0.5974646002012028,-2.0635952770832513,La Crescenta-Montrose
0.6676373081068869,-1.3341715681265134,Lexington Park
0.5942409770727693,-1.4162212415920188,Seven Oaks
0.6967773252981843,-1.3140252325707429,Aldan
0.5881061447520093,-2.059519933279845,Huntington Beach
0.5713387666280998,-1.3952057320687552,James Island
0.6025522349707663,-1.4397884224816981,Belton
0.7144662372671466,-1.2935978990054011,Fair Lawn
0.6731665111772049,-1.3489562522201575,Cherry Hill
0.7504461997970099,-1.4594006872863585,Burton
0.7495613178662487,-1.5335178393015496,Cudahy
0.45771608699401695,-1.714728394219113,McAllen
0.5872107908457362,-1.5129421527497884,Center Point
0.5785888643408842,-1.6432693786547092,Queen City
0.6789697309400861,-1.3386204123898469,Queen Anne
0.751289193825723,-1.376469622548596,North Tonawanda
0.6897000151813472,-1.3191390472790863,Port Penn
0.6781145196066088,-1.3491342758038607,Fairfax
0.7283468408082576,-1.5311965513963972,Hometown
0.5948780222497473,-2.061853438489761,Alhambra
0.5665076952585795,-1.4839714324959348,Phenix City
0.5470402927818347,-1.9187032785704383,Naco
0.4561016574359222,-1.3993404170667296,Franklin Park
0.6747949033693157,-2.118857637189148,McClellan Park
0.7220584195133221,-1.6298966659259286,Sandyville
0.5653069087332073,-1.4253545495677051,Brooklet
0.6576260995174474,-2.131113339196652,Cherryland
0.6323903838628614,-2.011760743628272,Las Vegas
0.6057182622338841,-1.417437736080659,Chester
0.7378047800248149,-1.4507962140740265,River Rouge
0.7403494700742227,-1.2392535820860537,Revere
0.7120018323633307,-1.287166360711802,Saddle Rock
0.7698996396397387,-1.7991168088822909,Box Elder
0.5910714591511477,-1.478014623758878,Powder Springs
0.4645961749053785,-1.4282064175654638,Fort Myers
0.5952026534906183,-1.47496204289714,Woodstock
0.7206185228804268,-1.2901945069640124,Peekskill
0.7022611498079504,-1.29205677327589,Wanamassa
0.6139771602543213,-1.4076569109524826,Mint Hill
0.6920335203912635,-1.3775342733923126,Frostburg
0.589088765120882,-2.059380306939685,Westminster
0.6697805724283359,-1.319233295058694,Salisbury
0.6258698337774106,-1.3791225230116273,Carolina Meadows
0.7128727516600759,-1.2811589374264376,Huntington Station
0.5920924767635644,-2.0592912951478333,East Whittier
0.6846560136430836,-1.474043999710591,Lockland
0.6841760480987852,-1.3414426097903216,Columbia
0.6729239104111777,-2.1214564324453677,West Sacramento
0.5891219263766699,-2.0607346824392327,Seal Beach
0.6446932097601694,-1.3355922661376367,Carrollton
0.5931920341923208,-2.0429811932879463,Calimesa
0.7273816737319048,-1.2703588400150967,New Britain
0.7131938922424429,-1.294292540047695,Clifton
0.7217564775527271,-1.2575393966591983,Long Hill
0.6169093133976717,-2.0774601726610946,Benton Park
0.7102774470623604,-1.2854472113985878,West Hempstead
0.5294892618237798,-1.4209196679383875,Atlantic Beach
0.7144732185841548,-1.2948370827743172,Haledon
0.5331736518747398,-1.5792576830085652,Natalbany
0.5610413240413332,-1.9381532277546631,Drexel Heights
0.6533448068623053,-2.1328516871316388,West Menlo Park
0.5823203782816481,-1.4324056797457623,Augusta
0.7052404268411047,-1.3946873692809127,Homestead
0.6778754094990855,-1.5757652791753245,Old Jamestown
0.5930576438399172,-2.041501154082255,Cherry Valley
0.5911849055525272,-2.0501056272945872,El Sobrante
0.5773758605107482,-2.0451331842556555,Elfin Forest
0.5939756870264662,-2.0586734485926277,La Puente
0.7262629176813765,-1.5294459861566467,Phoenix
0.7263501841439761,-1.5270042705331068,Hammond
0.6765332513043021,-1.3464237794755136,Kingstowne
0.6588932085543954,-1.5222587202969342,Sorgho
0.455541406746032,-1.4033389663830487,Weston
0.6601009763967753,-1.6905486027619836,El Dorado
0.5984053326680278,-2.074791564234795,Moorpark
0.6304932109659436,-1.386924144768042,Glen Raven
0.4603340808720084,-1.3981483571876177,Boca Raton
0.4945372982233413,-1.4198934143382147,Buenaventura Lakes
0.6591724612347144,-1.5591445087085827,Murphysboro
0.7051653776832689,-1.4071560014571602,Pottery Addition
0.6813660680030743,-1.3425264592558102,Beltsville
0.4923137487563005,-1.4389820803672768,Land O' Lakes
0.6548248460679965,-1.3538745900522773,Bon Air
0.6222762008475542,-1.5504702223261708,Jackson
0.7067536273025838,-1.3949526593272157,Sharpsburg
0.6458521083834937,-2.1220655523543135,Gilroy
0.7254810101764829,-1.5324846043843692,Tinley Park
0.6830468200727449,-2.1229888315286187,Yuba City
0.5272325511009511,-1.6062701438416813,Lafayette
0.7180284542704671,-1.2888174421841887,Briarcliff Manor
0.5190521928968537,-1.671339509014534,Cinco Ranch
0.5962917389438627,-2.0593506363424012,Monrovia
0.7268092057372506,-1.5307951256684387,Robbins
0.4979529075694942,-1.4227766982625094,Gotha
0.6753516634007019,-2.1168749431588822,Citrus Heights
0.5273913760628826,-1.6652744898638536,Woodloch
0.6770516140921443,-1.5705764153091453,Edwardsville
0.7220357302330461,-1.4279411275191607,Middleburg Heights
0.7415205860023109,-1.4552049157645641,Farmington Hills
0.7058844533350906,-1.3940520694331868,Wilkinsburg
0.5050075284060552,-1.4187449876904026,Orange City
0.5963458441506746,-1.4745361825596535,Holly Springs
0.7204614432477473,-1.2671142729356393,Madison Center
0.5275885982683579,-1.6293800484673382,Sulphur
0.6800954683076225,-1.3455842761053043,Somerset
0.4971779813816087,-1.4232461918312962,Lake Butler
0.6915989334075171,-1.384395162681902,Accident
0.7181820432446427,-1.2923901311630213,New Hempstead
0.7459554676316285,-1.4771663937424089,Waverly
0.7089876487451365,-1.3815188600746153,Indiana
0.5905373884000373,-1.4642579385946586,Loganville
0.5640624889765353,-1.6634069875642197,Tyler
0.714684403423646,-1.276114935888174,Setauket
0.49824437755457723,-1.4188758873843021,Azalea Park
0.6121620178322471,-1.4251520913744737,Gaffney
0.750709744514061,-1.4993442925475007,Lamont
0.5688412004684958,-1.6890231849957404,Lancaster
0.6805527445716449,-1.3423885782449028,Berwyn Heights
0.5952969012702258,-1.4670504653978498,Sugar Hill
0.7275579519863562,-1.289677889505422,Vassar College
0.5208882792699516,-1.5725783079611826,Estelle
0.7177230216513683,-1.3152487083763909,Mount Pocono
0.5987334545674028,-1.359182136307592,Northchase
0.6876893958830497,-1.3138611716210553,Dutch Neck
0.6101356905706816,-1.4388703792951492,Travelers Rest
0.5341231109878247,-1.5202201757306049,Pea Ridge
0.7066140009624242,-1.421397888153434,New Philadelphia
0.7148886069461293,-1.2937253080407969,Glen Rock
0.7440164068326627,-1.4490037609322284,Utica
0.7520850639646325,-1.5339070477247443,Shorewood
0.6769643476295446,-1.3457972062740478,Rose Hill
0.5708308758157694,-1.9987772393226861,El Prado Estates
0.7314168749625157,-1.2700481714082417,Tariffville
0.7001301027912653,-1.2941476777197793,Ramtown
0.5822313664897963,-1.3839727930029195,Georgetown
0.6768823171547008,-1.5813747673912342,St. Peters
0.6808686491662559,-1.4763111824089314,Erlanger
0.7384959304086046,-1.4523408304620413,Dearborn
0.594659856093248,-2.054219368341538,Montclair
0.5730142827100143,-2.044168017179303,San Diego
0.7689292365756297,-2.1488039964948666,Eugene
0.5819730577605012,-1.4679458193041228,Locust Grove
0.4473802471637065,-1.403860819829395,Country Walk
0.6713164621700909,-2.120613438416654,Freeport
0.6590310895653029,-1.3521344967880389,Ashland
0.593089059766453,-1.4642474666191467,Dacula
0.5914746302083584,-2.0554986946832496,Yorba Linda
0.7344624745072458,-1.4605857658484627,Milan
0.5391775845016002,-1.79566803828035,Fort Stockton
0.7223306908766332,-1.4270457736128876,Parma Heights
0.7516033530910821,-1.463289280859802,Flushing
0.7006955894689115,-1.3110459555375886,Willow Grove
0.5933979830440561,-2.0562788568588912,Diamond Bar
0.7093314786077795,-1.298275381400746,Fanwood
0.44740991776099037,-1.4027577717421347,Richmond Heights
0.4870533263907896,-1.4430609148291875,Feather Sound
0.6926478762879656,-1.319205369790662,Wilmington Manor
0.7991705565249355,-1.8946002816003966,Billings
0.7238910152279162,-1.4224957002529384,Beachwood
0.7192990539659191,-1.324692684958932,Ashley
0.6839927885273258,-1.473656536616648,Ridgewood
0.6190263977803407,-1.7019333854727425,Oklahoma City
0.6961943853280181,-1.4445706246321626,Pickerington
0.6893142974166564,-1.5019326158282083,Franklin
0.48389951643243584,-1.6995440297267623,Corpus Christi
0.7346160634814213,-1.5732310611014286,Savanna
0.6138951297794775,-1.8609241536831658,North Valley
0.7317380155448826,-1.5477475086930594,Cortland
0.6981159928344638,-1.3221165789829885,Thorndale
0.7955647062903153,-2.1353248186817146,Washougal
0.6295646958038825,-1.6435084887622324,Fayetteville
0.6124918850608742,-1.4665652638657953,Murphy
0.5562381779398449,-1.8617671477118793,Santa Teresa
0.77317387731648,-1.6280239276385386,Faribault
0.8072112883888735,-2.0798861803213664,West Pasco
0.7032263168843033,-1.388371022717945,Southwest Greensburg
0.7072109035666063,-1.2962979233582366,Perth Amboy
0.7037307170381296,-1.298284108047006,Regency at Monroe
0.7133893691186662,-1.4206473965750763,North Canton
0.6778684281820776,-1.351563774122637,Centreville
0.612179471124767,-1.6138919966851406,Conway
0.6011751701909428,-2.0906932590497154,Eastern Goleta Valley
0.7181768072568867,-1.3015548550652434,Hamburg
0.762694920487506,-1.4919179165802647,Big Rapids
0.5768452804181419,-1.468743434772284,Barnesville
0.6010233265460194,-2.0919411694648913,Goleta
0.5998190493621433,-1.5055855899526325,Guntersville
0.5898706726257755,-2.0605217522704895,Los Alamitos
0.7316996183013387,-1.2460324409007997,Valley Falls
0.6938713520936136,-1.315226019096115,Beckett
0.7323035022225288,-1.534915848032397,Bensenville
0.6107605184428957,-1.4284141117464513,Converse
0.5264698422178296,-1.7080333112084627,Shady Hollow
0.5950682631382147,-2.061216393312783,San Gabriel
0.7372811812492166,-1.47312421119479,Jackson
0.7368692835457459,-2.125381677933103,Klamath Falls
0.7519262390027011,-1.560202178235291,Madison
0.7093559132173073,-1.2992073872213108,Watchung
0.5851722462794069,-1.5148951761827703,Birmingham
0.5852106435229506,-1.4062327222828552,Elloree
0.7397228968727567,-1.540211176982948,Johnsburg
0.6742521059719454,-2.1175434042623964,Carmichael
0.7432746419005651,-1.533748222762813,Kenosha
0.46419125851891585,-1.3980628360542697,Atlantis
0.570057694957136,-1.6976154409033086,Forest Hill
0.7410528377627764,-1.450914896463162,Ferndale
0.5684362840820333,-1.6950864588171688,Mansfield
0.6967249654206245,-1.316704312972554,Lima
0.6712501396585152,-1.3505462471687242,Aquia Harbour
0.7247950957804492,-1.5258348999342708,Griffith
0.570352655600723,-1.7010624661759974,Benbrook
0.732846299619899,-1.5336522296539532,Rosemont
0.5704591206850946,-2.015757547615339,Calexico
0.6179896722046562,-1.374296687629863,Buies Creek
0.4722442076876177,-1.434620502566543,North Port
0.6912603395326301,-1.4474608898734653,Circleville
0.6926758015559975,-1.3086234385358204,Williamstown
0.6189461126347491,-1.502334041556167,Manchester
0.6116541270199168,-1.4628965817781032,Hayesville
0.4969353806155815,-1.4198096385341192,Belle Isle
0.7033345272979269,-1.9495223025021542,Orem
0.6773134134799434,-1.3192943815825138,Greenwood
0.45946316157526323,-1.3996615576490965,Hillsboro Pines
0.5942985729380852,-1.467273867542105,Suwanee
0.5739864311033752,-1.4779116493330104,Warm Springs
0.6120171555043317,-1.487860026069378,Chattanooga
0.48665190066283087,-1.437440954637766,Progress Village
0.7282927356014458,-1.2428454696866582,Ocean Grove
0.7429535013181983,-1.236787431852986,Beverly
0.6415725610576035,-1.4491451326016398,Pennington Gap
0.5847271873201483,-1.9610310035898049,Litchfield Park
0.6539486907834954,-2.1322216232716684,Menlo Park
0.7307396872127419,-1.5326730999435845,Forest Park
0.6716585467034818,-2.118904761078952,Florin
0.7222224804630095,-1.4254732319568406,Seven Hills
0.7156251358904709,-1.312101879735045,East Stroudsburg
0.7028196551685886,-1.30071186103653,Hightstown
0.6012449833610226,-2.081251027796426,Ojai
0.6728034826927901,-2.1167894220255348,Mather
0.7850176816205136,-1.2759334216459666,Highgate Springs
0.7021878459793666,-1.2966801504644232,West Freehold
0.7373056158587445,-1.5344882423656587,Mettawa
0.4942824801525501,-1.409109024890142,Rockledge
0.7147664338984897,-1.2884544136997738,Tuckahoe
0.5313236028676257,-1.552494804258484,Biloxi
0.5939948856482381,-2.057032839095753,Walnut
0.7234511922564135,-1.4227766982625094,Highland Hills
0.7148240297638057,-1.3421651761006475,Linntown
0.7453742729907143,-1.287468302672397,Loudonville
0.45327247871843934,-1.7013033216127726,Cameron Park
0.7134050770819342,-1.2920550279466383,Bogota
0.673143821896929,-2.1180338417822067,La Riviera
0.5767510326385342,-1.6926464885228807,Lewisville
0.7153022499788521,-1.31243872828068,Stroudsburg
0.58974326359038,-2.045932545053069,Perris
0.7093402052540394,-1.2862064296232052,Hewlett
0.5902197384761745,-2.0601622144445786,Cypress
0.66483081866968,-2.1390318980129504,Novato
0.6800780150151025,-1.3417654957019407,New Carrollton
0.6334532893773259,-1.330569208550397,Elizabeth City
0.6655987635405576,-1.3646362902200744,Gordonsville
0.686675359587641,-1.3338731168244222,Middle River
0.6822963284943873,-1.345345165997781,Aspen Hill
0.6274912446525133,-1.4840447363245184,Crossville
0.7369425873743297,-1.4550111842175928,Romulus
0.593429398970592,-2.050248744293251,Jurupa Valley
0.7852969343008326,-1.626692241419267,Lauderdale
0.6604011730281184,-2.1344189927999295,Emeryville
0.6973689919146103,-1.3033560348533015,Pemberton Heights
0.654069118501883,-2.1328516871316388,North Fair Oaks
0.723336000525782,-1.2588169776716582,Oxoboxo River
0.711935509851755,-1.3588557597374693,State College
0.7406391947300537,-1.4571579391975458,Northville
0.7451177095906713,-1.4542362580297075,Lake Angelus
0.6708382419550445,-1.3766022675717475,Harrisonburg
0.7132462521200027,-1.2950063797117608,Montclair State University
0.6778719188405816,-1.3427987306191214,Silver Hill
0.5953352985137698,-1.5161011986958983,Good Hope
0.6453442175711632,-1.3371874970739597,Smithfield
0.6788266139414226,-1.3419452646148962,Peppermill Village
0.6254003402086241,-1.4649560702954565,Rockford
0.5914641582328464,-2.065651274942101,Lawndale
0.7941614615717117,-2.137003825422133,Gresham
0.5836834804274557,-1.4716214827088228,Lovejoy
0.5844758599078611,-1.9710142869112124,Tonopah
0.5290529295107811,-1.6733640909468475,Pinebrook
0.48859619744955257,-1.438931465818969,Tampa
0.4489632607952654,-1.4027507904251266,Westwood Lakes
0.4596481664759746,-1.3999722262559517,Watergate
0.5963720240894544,-1.4315871203265769,Ninety Six
0.7258911625507016,-1.5244979777272432,Gary
0.7097992268473139,-1.2858468917972943,North Lynbrook
0.6064984244095255,-1.3495025402760317,Piney Green
0.7195207107809223,-1.275181184738357,Milford city 
0.44803998162096037,-1.4032761345299767,The Crossings
0.6781057929603489,-1.3483907655425111,Mantua
0.4880516547229304,-1.4290424302771692,Highland City
0.6415044932167757,-1.8881373273802615,Farmington
0.7077641729394886,-1.2960483412752013,Sewaren
0.6626212318366552,-2.1350717459401753,Rollingwood
0.46172685361509985,-1.3978429245685187,Delray Beach
0.44717255298271913,-1.402574512170675,Palmetto Estates
0.6824516627978148,-1.3405018773234967,Maryland City
0.6178936790957965,-1.7013713894536002,Valley Brook
0.4530228966354041,-1.3990664003741666,Ojus
0.7126842561008605,-1.2862169015987173,Baxter Estates
0.4594020750514434,-1.421390906836426,Ave Maria
0.5958711145941321,-1.3597668216070102,Silver Lake
0.5865580377054903,-1.95022741551996,Fountain Hills
0.5841250487282102,-1.4398407823592578,Thomson
0.6174800360630738,-2.0762052809289107,Hillcrest
0.702390304172598,-1.3149432757572919,Kulpsville
0.6141324945577487,-1.9481260391005586,Flagstaff
0.7149654014332172,-2.0546836259225683,Winnemucca
0.6455152598378588,-1.356503055905781,McKenney
0.6240651633308485,-1.4683786609586174,Friendsville
0.6834011219108996,-1.337046125404548,Glen Burnie
0.6733864226629562,-1.3574839309454017,Bealeton
0.6326329846288886,-1.6749139433226183,Turley
0.7158537740224822,-1.288115819824887,Hartsdale
0.602684879993918,-1.5816191134865134,Helena-West Helena
0.5461536655218217,-1.6139094499776607,Alexandria
0.465992438306974,-1.3979895322256861,Westgate
0.7371223562872852,-1.5352055726882283,Vernon Hills
0.6821985900562756,-1.4768574704648059,Delhi Hills
0.6071302335987475,-1.350260013171397,Pumpkin Center
0.6849160677016308,-1.3385314005979951,Arbutus
0.6696618900392003,-1.4265361374713053,Dunbar
0.6780464517657812,-1.342550893865338,Suitland
0.5553655133138476,-1.8604476787973714,Sunland Park
0.5932391580821246,-2.0610383697290797,Pico Rivera
0.5752500494818191,-1.4178409071378695,Fairfax
0.5759865784261607,-1.3994032489198014,Summerville
0.6415219465092958,-1.3588068905184132,Lawrenceville
0.4550282799459457,-1.7097018459733693,Progreso Lakes
0.696253726522586,-1.3110424648790844,Gloucester City
0.670410636288306,-1.4280161766769965,Nitro
0.6861831767385785,-1.470907643044757,Landen
0.7112705394067451,-1.293641532236701,Kearny
0.624822636226214,-1.402834566229222,Tyro
0.7507865390011488,-1.3101279123510396,East Frankfort
0.6151203509143776,-1.4438498036510892,Brevard
0.5727751726024911,-1.6976939807196485,Haltom City
0.5842891096778977,-1.4723615023116685,Irondale
0.6282853694621707,-1.67505531499203,Jenks
0.5914868475131223,-1.468457200774957,Lilburn
0.4548205857649583,-1.3991205055809786,Dania Beach
0.5840011303513186,-1.550370738558807,Starkville
0.5917922801322214,-1.719657204026745,Wichita Falls
0.5734052364624611,-1.3931270449296298,Mount Pleasant
0.7872988269528701,-1.6312300974744522,Maple Grove
0.4480207829991884,-1.4024697924155554,Kendall
0.7227774951651438,-1.4209091959628755,Bentleyville
0.5890294239263143,-1.47061268240117,Belvedere Park
0.48508110433603596,-1.4427799168196165,St. Petersburg
0.6304862296489356,-2.012930114227108,Summerlin South
0.7845394614054672,-1.62274779730976,Landfall
0.6760672483940194,-1.3473819652348584,Newington
0.6753691166932217,-1.3103041906054909,Dewey Beach
0.6623123085590521,-2.135216608268091,Richmond
0.45275062527209303,-1.40167741293515,Country Club
0.6567028203431424,-1.3501186415019855,Mechanicsville
0.5858127821148887,-1.4278154638130172,Graniteville
0.7725071615422182,-2.1170756560228616,Eagle Crest
0.7092965720227395,-1.5648744246428798,Bartonville
0.8130494147367945,-2.145021868005795,Napavine
0.6877312837850976,-1.3430797286286924,Eldersburg
0.7155867386469271,-1.2932401065087424,Ho-Ho-Kus
0.5593902425689465,-1.6838709730438532,Retreat
0.7774412073376061,-1.2158382448412979,Waterville
0.706387108159665,-1.3008532327059417,Six Mile Run
0.7072318475176302,-1.368716870011237,Newburg
0.6096958675991792,-1.435206933195213,Greer
0.580178859289451,-1.4708727364597172,Griffin
0.5531925783951147,-1.5558720163610933,Laurel
0.6575667583228797,-2.1301272281692754,Fairview
0.5938587499665825,-1.531859776512155,Brilliant
0.5253545768258051,-1.6768722027433558,Hempstead
0.7401103599666995,-1.450328465834492,Highland Park
0.5154253987112094,-1.6601362405459823,Webster
0.5653819578910431,-1.864320564407547,Dona Ana
0.7378361959513509,-1.4937958908554108,Kalamazoo
0.7102966456841323,-1.564511396158465,West Peoria
0.6872094303387514,-1.3465808591081931,Mount Airy
0.5949879779926229,-1.3922404176696166,Danwood
0.624511967619359,-1.3756597897756706,Cary
0.574330260966018,-1.3975235293154034,North Charleston
0.5438288869581651,-1.4620762770296658,Moultrie
0.6767950506921012,-1.3449053430262785,Belle Haven
0.7282159411143581,-1.5422305229275053,Montgomery
0.595565681975033,-2.059415213524725,South Monrovia Island
0.7089684501233646,-1.299198660575051,North Plainfield
0.6814323905146501,-1.353073483925612,Goose Creek Village
0.7309212014549493,-1.5385199529377656,Winfield
0.5719164706105099,-1.393392334975933,Sullivan's Island
0.70053676450698,-1.317693914658435,Mont Clare
0.7080538975953196,-1.2958528643989777,Port Reading
0.5953684597695577,-2.058853217505583,Irwindale
0.7788915759460134,-2.1484392226812,Albany
0.5880590208622054,-1.4000455300845354,Manning
0.5911011297484317,-2.0608935074011643,Artesia
0.5838440507186391,-1.5139631703622054,Vestavia Hills
0.5939791776849702,-1.7264796960727908,Electra
0.7222154991460016,-1.2802408942398886,Dodgingtown
0.7186654994474451,-1.4212984043860701,Stow
0.707001464056367,-1.3683503508683184,Altoona
0.5916369458287938,-1.4112714878333628,Hopkins
0.7063138043310813,-1.39736295902422,McKees Rocks
0.6408918826493257,-1.8906034776133296,Upper Fruitland
0.47702990049658617,-1.7366514749534137,El Cenizo
0.7175066008241209,-1.425448797347313,Pigeon Creek
0.7287622291702324,-1.232425854052252,Buzzards Bay
0.6714979764122982,-2.1175032616896003,Vineyard
0.6191799867545162,-1.4074474714422434,Kannapolis
0.6464786815849597,-1.5458974596859456,Farley
0.7493361703927415,-1.3363724283132783,Auburn
0.6305577881482675,-1.6738440564911459,Tulsa
0.6843593076702446,-1.4723108877633606,Concorde Hills
0.6923651329491426,-1.5032730286937401,Homecroft
0.5270475462002396,-1.4957017903985885,Pretty Bayou
0.8322707257890081,-2.046932618714462,Millwood
0.5601215355255321,-1.4623555297099848,Vienna
0.6886755069104266,-1.3609658628031303,Martinsburg
0.6892113229907888,-1.3009980950338573,Stockton University
0.6816470660126455,-1.46691083905769,Williamsburg
0.7200495455442766,-1.677771047308133,Boys Town
0.8201145075488675,-2.14531508332013,Tumwater
0.5273198175635507,-1.5869126971078122,Gonzales
0.8317052391113618,-1.7701460886284368,Garrison
0.5689337029188515,-1.5713495961677788,Canton
0.6545909719482292,-2.1093839900093228,Turlock
0.5528749284712517,-1.54697781849293,Waynesboro
0.7228158924086876,-1.524470052459211,Crown Point
0.7095025208744749,-1.2837507513656492,Merrick
0.6963863715457375,-1.399766277404216,West Waynesburg
0.6974126251459101,-1.5003879994401934,Fishers
0.5824041540857439,-2.045977923613621,Fallbrook
0.6853942879166772,-1.4760127311068405,Mount Healthy Heights
0.6565858832832587,-2.111995002570306,Rouse
0.6855199516228208,-1.3410150041235833,Ellicott City
